{
    "result": [
        {
            "name": "14 ER Pally Sadharan Durgotsav",
            "lat": 22.582049,
            "lon": 88.382161,
            "address": "237P/1A, Maniktala Main Rd, Manicktala, Narkeldanga, Kolkata, West Bengal 700054",
            "zone": "CCU-C",
            "id": "9x4z26T",
            "city": "Kolkata"
        },
        {
            "name": "19 Pally",
            "lat": 22.512735,
            "lon": 88.3675,
            "address": "Sony Centre, 102, SH1, Dhakuria, Kolkata - 700029, WB, India",
            "zone": "CCU-S",
            "id": "hNTQCxd",
            "city": "Kolkata"
        },
        {
            "name": "2 no. Subhasnagar Durgotsav",
            "lat": 22.7051266,
            "lon": 88.373403,
            "address": "The Sayans Blog, Peerless Nagar, Barrackpore Trunk Road, Sodepur, Kolkata - 700114, WB, India",
            "zone": "CCU-N",
            "id": "JwMser8",
            "city": "Kolkata"
        },
        {
            "name": "20 Palli Sarbojanin Durgotsav",
            "lat": 22.5936339,
            "lon": 88.3581339,
            "address": "35-139, Brindaban Basak Street, Ahiritola, Beniatola, Kolkata- 700005, West Bengal",
            "zone": "CCU-N",
            "id": "QTTmZmF",
            "city": "Kolkata"
        },
        {
            "name": "20 Pally Puja O Janakalyan Samity",
            "lat": 22.550168,
            "lon": 88.370926,
            "address": "?P-65 Dr, Sundari Mohan Avenue Kolkata -700014",
            "zone": "CCU-C",
            "id": "WzN9wS3",
            "city": "Kolkata"
        },
        {
            "name": "21 Pally Sarbojanin Durgotsab Samiti",
            "lat": 22.529242,
            "lon": 88.368609,
            "address": "17, Near Patha Bhavan And Beside, Bondel Rd, Ballygunge, Kolkata-700019",
            "zone": "CCU-S",
            "id": "oTLO7Ki",
            "city": "Kolkata"
        },
        {
            "name": "22 Palli Northern Park",
            "lat": 22.53544,
            "lon": 88.349884,
            "address": "Bhowanipore, Kolkata - 700020, WB, India",
            "zone": "CCU-S",
            "id": "JOPdJ4O",
            "city": "Kolkata"
        },
        {
            "name": "22 Pally Sarodotsav",
            "lat": 22.524482,
            "lon": 88.347507,
            "address": "Bakul Bagan, Bhowanipore, Kolkata, West Bengal 700025",
            "zone": "CCU-S",
            "id": "X1Vv86r",
            "city": "Kolkata"
        },
        {
            "name": "25 Pally Sarbojonin Durgastov Samity Khidderpore",
            "lat": 22.539205,
            "lon": 88.326445,
            "address": "Gangadhar Babu Ln, Calcutta Medical College, Khidirpur, Kolkata, West Bengal 700012",
            "zone": "CCU-S",
            "id": "DiQT83j",
            "city": "Kolkata"
        },
        {
            "name": "3 No Mahajati Nagar Durga Puja",
            "lat": 22.6858044,
            "lon": 88.3807243,
            "address": "Sodepur, Kamarhati - 700109, WB, India",
            "zone": "CCU-N",
            "id": "PmDUPZM",
            "city": "Kolkata"
        },
        {
            "name": "31 Pally Sadharan Durgotsab Samity",
            "lat": 22.61038,
            "lon": 88.38913,
            "address": "5/3F,Raja Manindra Road,Paikpara,Kolkata-700037",
            "zone": "CCU-N",
            "id": "hqVK5dB",
            "city": "Kolkata"
        },
        {
            "name": "37 Pally Sarbojanin Durgotsab O Saradiya Sammelan",
            "lat": 22.574566,
            "lon": 88.368107,
            "address": "10, Dr Kartik Bose St, College Row, Baithakkhana, Kolkata-700009",
            "zone": "CCU-C",
            "id": "mFYrana",
            "city": "Kolkata"
        },
        {
            "name": "4 No Milani",
            "lat": 22.477933,
            "lon": 88.37235,
            "address": "Vidyasagar Park And Playground, Vidyasagar Colony, Naktala, Ward 100, Kolkata - 700047, WB, India",
            "zone": "CCU-S",
            "id": "nM3gMIT",
            "city": "Kolkata"
        },
        {
            "name": "4-Sight Prestige Cultural Association",
            "lat": 22.463722,
            "lon": 88.383518,
            "address": "150, Garia Station Rd, Barhans, Garia, Kolkata, West Bengal 700084",
            "zone": "CCU-S",
            "id": "4SI20YJ",
            "city": "Kolkata"
        },
        {
            "name": "41 Pally Club, Haridevpur",
            "lat": 22.482926,
            "lon": 88.338411,
            "address": "276, Mahatma Gandhi Rd, Haridevpur, Paschim Putiary, Kolkata, West Bengal 700082",
            "zone": "CCU-S",
            "id": "qwavggf",
            "city": "Kolkata"
        },
        {
            "name": "47 Pally Jubak Brinda Durga Puja",
            "lat": 22.571486,
            "lon": 88.358725,
            "address": "90, Chittaranjan Ave, Calcutta Medical College, College Square, Kolkata-700012",
            "zone": "CCU-C",
            "id": "H0KzbPn",
            "city": "Kolkata"
        },
        {
            "name": "48 Block Swiss Park Durgotsav Committee",
            "lat": 22.505339,
            "lon": 88.348958,
            "address": "48/48, Purna Chandra Mitra Ln, Swiss Park, Tollygunge, Kolkata, West Bengal 700033",
            "zone": "CCU-S",
            "id": "R1VGl2a",
            "city": "Kolkata"
        },
        {
            "name": "61 Pally Sarbojanin Durgotsav Committee",
            "lat": 22.550213,
            "lon": 88.359659,
            "address": "55 Mcleod Street,Kolkata-700017",
            "zone": "CCU-C",
            "id": "z67wKvb",
            "city": "Kolkata"
        },
        {
            "name": "64 Pally",
            "lat": 22.526789,
            "lon": 88.346512,
            "address": "Seagull, 31A, Shyama Prasad Mukherjee Road, Ward 72, Kolkata - 700053, WB, India",
            "zone": "CCU-S",
            "id": "uk5CS6D",
            "city": "Kolkata"
        },
        {
            "name": "64 Pally Durgotsab Committee",
            "lat": 22.520583,
            "lon": 88.347567,
            "address": "28C, Satish Mukherjee Road, Manoharpukur, Kalighat, Kolkata, West Bengal 700026",
            "zone": "CCU-S",
            "id": "K6dtjlX",
            "city": "Kolkata"
        },
        {
            "name": "66 Pally Sarbojanin Durgostav Committee",
            "lat": 22.518009,
            "lon": 88.342777,
            "address": "No. 14A, Nepal Bhattacharjee St, Dharamdas Lane, Anami Sangha, Kalighat, Kolkata, West Bengal 700026",
            "zone": "CCU-S",
            "id": "BPn1FXF",
            "city": "Kolkata"
        },
        {
            "name": "68 Pally",
            "lat": 22.527443,
            "lon": 88.346184,
            "address": "Seagull, 31A, Shyama Prasad Mukherjee Road, Bhowanipore, Kolkata - 700025, WB, India",
            "zone": "CCU-S",
            "id": "C329zjN",
            "city": "Kolkata"
        },
        {
            "name": "70 Pally Sarbojanin Durga Puja [Kasba Anchalik Yubak Brinda]",
            "lat": 22.519275,
            "lon": 88.373638,
            "address": "287 B. B. Chatterjee Road ,Kolkata 700042",
            "zone": "CCU-S",
            "id": "bjmDAMs",
            "city": "Kolkata"
        },
        {
            "name": "74 Pally",
            "lat": 22.539438,
            "lon": 88.325729,
            "address": "Manali Banerjee Road, Ward 77, Kolkata - 700022, WB, India",
            "zone": "CCU-S",
            "id": "rlONofl",
            "city": "Kolkata"
        },
        {
            "name": "74 Pally Sarbojanin Durgotsab Kidderpore",
            "lat": 22.539748,
            "lon": 88.32528,
            "address": "5B, Monilal Banerjee Rd, Khidirpur, Kolkata, West Bengal 700023",
            "zone": "CCU-S",
            "id": "YwpISKE",
            "city": "Kolkata"
        },
        {
            "name": "77 Palli",
            "lat": 22.504271,
            "lon": 88.367607,
            "address": "Dhakuria, Kolkata - 700068, WB, India",
            "zone": "CCU-S",
            "id": "RhOtmiA",
            "city": "Kolkata"
        },
        {
            "name": "95 Pally",
            "lat": 22.507622,
            "lon": 88.362953,
            "address": "Jodhpur Park, Kolkata - 700068, WB, India",
            "zone": "CCU-S",
            "id": "ZaPpLLs",
            "city": "Kolkata"
        },
        {
            "name": "95 Pally Jodhpur Park",
            "lat": 22.508361,
            "lon": 88.362913,
            "address": "70A, Rahim Ostagar Rd, Jodhpur Park, Kolkata, West Bengal 700068",
            "zone": "CCU-S",
            "id": "wVxuTMZ",
            "city": "Kolkata"
        },
        {
            "name": "97 Palli Bharatmata Puja",
            "lat": 22.486988,
            "lon": 88.344527,
            "address": "23 M . N . Sen Lane, MN Sen Ln, Kudghat, Tollygunge, Kolkata, West Bengal 700040",
            "zone": "CCU-S",
            "id": "eJHgeIo",
            "city": "Kolkata"
        },
        {
            "name": "AA Block",
            "lat": 22.5917995,
            "lon": 88.39736,
            "address": "AA Block, Bidhannagar - 700067, WB, India",
            "zone": "CCU-E",
            "id": "MAy1sH4",
            "city": "Kolkata"
        },
        {
            "name": "AB Block",
            "lat": 22.593313,
            "lon": 88.3997852,
            "address": "241, 1st Cross Road, Sector I, Bidhannagar - 700067, WB, India",
            "zone": "CCU-E",
            "id": "IZBecN5",
            "city": "Kolkata"
        },
        {
            "name": "AB Block Abashik Sangha",
            "lat": 22.593879,
            "lon": 88.401903,
            "address": "AB Block, Sector 1, Salt Lake City, Kolkata, West Bengal 700064",
            "zone": "CCU-E",
            "id": "pi1lQi0",
            "city": "Kolkata"
        },
        {
            "name": "AC Block",
            "lat": 22.5948385,
            "lon": 88.4034229,
            "address": "130, 1st Avenue, Sector I, Bidhannagar - 700064, WB, India",
            "zone": "CCU-E",
            "id": "eK0gCLt",
            "city": "Kolkata"
        },
        {
            "name": "AE Block",
            "lat": 22.6008801,
            "lon": 88.4119096,
            "address": "Sector I, Bidhannagar - 700064, WB, India",
            "zone": "CCU-E",
            "id": "6tlFXDB",
            "city": "Kolkata"
        },
        {
            "name": "AE Part 1 Block Committee",
            "lat": 22.598575,
            "lon": 88.409369,
            "address": "AE-059, AE Block, Sector 1, Salt Lake City, Kolkata- 700064",
            "zone": "CCU-E",
            "id": "J0yG1Yl",
            "city": "Kolkata"
        },
        {
            "name": "AG Block",
            "lat": 22.5995094,
            "lon": 88.4240305,
            "address": "Sector II, Bidhannagar - 700101, WB, India",
            "zone": "CCU-E",
            "id": "i2mrWwf",
            "city": "Kolkata"
        },
        {
            "name": "AG Block Durga Puja",
            "lat": 22.598204,
            "lon": 88.423222,
            "address": "AG Block, Sector II, Salt Lake City, Bidhannagar, West Bengal 700091",
            "zone": "CCU-E",
            "id": "QMgLkG1",
            "city": "Kolkata"
        },
        {
            "name": "AH Block",
            "lat": 22.5965541,
            "lon": 88.4264543,
            "address": "Sector II, Bidhannagar - 700101, WB, India",
            "zone": "CCU-E",
            "id": "YBsi7Rr",
            "city": "Kolkata"
        },
        {
            "name": "AJ Block",
            "lat": 22.5921092,
            "lon": 88.4288779,
            "address": "Sector II, Bidhannagar - 700101, WB, India",
            "zone": "CCU-E",
            "id": "hI7Fd22",
            "city": "Kolkata"
        },
        {
            "name": "AK Block",
            "lat": 22.5891537,
            "lon": 88.4313014,
            "address": "Sector II, Bidhannagar - 700102, WB, India",
            "zone": "CCU-E",
            "id": "hBskY6i",
            "city": "Kolkata"
        },
        {
            "name": "AL Block",
            "lat": 22.5861982,
            "lon": 88.4337248,
            "address": "175, Bidhannagar - 700135, WB, India",
            "zone": "CCU-E",
            "id": "gN7rXpE",
            "city": "Kolkata"
        },
        {
            "name": "Aaikatan Sarbojanin Durgotsab",
            "lat": 22.474439,
            "lon": 88.321434,
            "address": "Dhar Para, Netaji Pally, Purba Barisha, Kolkata, West Bengal 700063",
            "zone": "CCU-S",
            "id": "rohkyhl",
            "city": "Kolkata"
        },
        {
            "name": "Abasar Sarbojonin",
            "lat": 22.527562,
            "lon": 88.348897,
            "address": "Rakhal Mukherjee Road, Ward 72, Kolkata - 700053, WB, India",
            "zone": "CCU-S",
            "id": "dqtemFG",
            "city": "Kolkata"
        },
        {
            "name": "Abasarika Club",
            "lat": 22.508394,
            "lon": 88.369281,
            "address": "Dakuria Kali Bari Lane, Dhakuria, Kolkata - 700031, WB, India",
            "zone": "CCU-S",
            "id": "ux0EDyd",
            "city": "Kolkata"
        },
        {
            "name": "Acharya Prafulla Sangha",
            "lat": 22.490906,
            "lon": 88.313275,
            "address": "P-7, Dr Akshay Kumar Paul Rd, Shimultala, Gopinagar, Behala, Kolkata, West Bengal 700034",
            "zone": "CCU-S",
            "id": "mbqLjDl",
            "city": "Kolkata"
        },
        {
            "name": "Adarsha Pally Sarbojanin Durgotsav Committee",
            "lat": 22.499953,
            "lon": 88.327701,
            "address": "No 165, Roy Bahadur Rd, Buroshibtalla, Behala, Kolkata, West Bengal 700034",
            "zone": "CCU-S",
            "id": "XwnLNlv",
            "city": "Kolkata"
        },
        {
            "name": "Adarsha Sangha Sarbojanin",
            "lat": 22.591235,
            "lon": 88.300301,
            "address": "Sastitala, 711104, Howrah Mangol Hat, Santragachi, Ramrajatala, Howrah, West Bengal 711104",
            "zone": "HWH",
            "id": "uOPTLSr",
            "city": "Kolkata"
        },
        {
            "name": "Adhar Laal Sen",
            "lat": 22.596865,
            "lon": 88.358915,
            "address": "Golak Dutta Ln, Kashi Mitra, Kolkata - 700003, WB, India",
            "zone": "CCU-N",
            "id": "3ZM41tg",
            "city": "Kolkata"
        },
        {
            "name": "Adhibasi Brinda (Kanai Dhar Lane)",
            "lat": 22.572353,
            "lon": 88.365262,
            "address": "25/8A, Kanai Dhar Lane Kolkata, Kolkata, West Bengal 700012",
            "zone": "CCU-C",
            "id": "CiTWSru",
            "city": "Kolkata"
        },
        {
            "name": "Adi Babubagan",
            "lat": 22.507975,
            "lon": 88.370909,
            "address": "52 Babubagan Lane, Dhakuria, Kolkata-700039",
            "zone": "CCU-S",
            "id": "4pP5Pxo",
            "city": "Kolkata"
        },
        {
            "name": "Adi Ballygunge",
            "lat": 22.529564,
            "lon": 88.37265,
            "address": "Bondel Road Flyover, Ballygunge, Kolkata - 700042, WB, India",
            "zone": "CCU-S",
            "id": "jRMSPos",
            "city": "Kolkata"
        },
        {
            "name": "Adi Ballygunge Sarbojanin Durga Puja Parishad",
            "lat": 22.516887,
            "lon": 88.371526,
            "address": "71, Ballygunge Gardens Kolkata 700029",
            "zone": "CCU-S",
            "id": "t1QvxTx",
            "city": "Kolkata"
        },
        {
            "name": "Adi Dakshin Kalikata Barowari Samittee",
            "lat": 22.516787,
            "lon": 88.343197,
            "address": "Rash Behari, Sahanagar, Kalighat, Kolkata, West Bengal 700026",
            "zone": "CCU-S",
            "id": "9OOLVyt",
            "city": "Kolkata"
        },
        {
            "name": "Adi Debensen Road Sarbojonin Durgotsav Committee",
            "lat": 22.6849435,
            "lon": 88.3863676,
            "address": "Sodepur, Kamarhati - 700109, WB, India",
            "zone": "CCU-N",
            "id": "7TiK4Iz",
            "city": "Kolkata"
        },
        {
            "name": "Adi Lake Palli Club",
            "lat": 22.514823,
            "lon": 88.349521,
            "address": "Adi Lake Palli Club,, Lake Place Road, Kalighat, Kolkata, West Bengal 700029",
            "zone": "CCU-S",
            "id": "kVk9Tv6",
            "city": "Kolkata"
        },
        {
            "name": "Adi Tarapukur Durgotsav Samity",
            "lat": 22.6859462,
            "lon": 88.3867961,
            "address": "Sodepur, Kamarhati - 700109, WB, India",
            "zone": "CCU-N",
            "id": "HCQNOZi",
            "city": "Kolkata"
        },
        {
            "name": "Agarpara Kalyan Samity Club",
            "lat": 22.6840908,
            "lon": 88.3831329,
            "address": "Kamarhati - 700109, WB, India",
            "zone": "CCU-N",
            "id": "kYQsiRe",
            "city": "Kolkata"
        },
        {
            "name": "Agarpara Youth Recreation Centre Durgotsab",
            "lat": 22.684524,
            "lon": 88.3726735,
            "address": "Sodepur, Kamarhati - 700058, WB, India",
            "zone": "CCU-N",
            "id": "3NWaanM",
            "city": "Kolkata"
        },
        {
            "name": "Agradoot Durga Mandir",
            "lat": 22.56999,
            "lon": 88.311158,
            "address": "700,, Sarat Chatterjee Rd, Mandirtala, Naora, Shibpur, Howrah, West Bengal 711102",
            "zone": "HWH",
            "id": "1JpYdZu",
            "city": "Kolkata"
        },
        {
            "name": "Agradoot Durgotsab Samity",
            "lat": 22.522025,
            "lon": 88.369187,
            "address": "1A, Cornfield Road, Ballygunge, Kolkata 700019",
            "zone": "CCU-S",
            "id": "Dt36obH",
            "city": "Kolkata"
        },
        {
            "name": "Agradut Udaya Sangha",
            "lat": 22.533835,
            "lon": 88.341946,
            "address": "32B, D.N.Ghosh Road, Kolkata, West Bengal 700025",
            "zone": "CCU-S",
            "id": "cpbZgJ2",
            "city": "Kolkata"
        },
        {
            "name": "Ahiritola Jubak Brinda",
            "lat": 22.5944,
            "lon": 88.358788,
            "address": "Nimu Gossain Lane, Shobha Bazar, Kolkata - 700003, WB, India",
            "zone": "CCU-N",
            "id": "tOnXJOY",
            "city": "Kolkata"
        },
        {
            "name": "Ahiritola Sarbajanin Sarodotsab",
            "lat": 22.594882,
            "lon": 88.357176,
            "address": "172/C, BK Paul Ave, Ahiritola, Beniatola, Kolkata, West Bengal 700005",
            "zone": "CCU-N",
            "id": "nn2Ql0X",
            "city": "Kolkata"
        },
        {
            "name": "Ahiritola Sarbojanin Durgotsav Samity",
            "lat": 22.592818,
            "lon": 88.356809,
            "address": "30/C, B.K. Pal Avenue, Kolkata, West Bengal 700005",
            "zone": "CCU-N",
            "id": "DVpRq5x",
            "city": "Kolkata"
        },
        {
            "name": "Aikya Sammilani",
            "lat": 22.504429,
            "lon": 88.318611,
            "address": "Behala BalanAnda Brahmachari Hospital And Research Center, 151, Diamond Harbour Road, New Alipore, Kolkata - 700034, WB, India",
            "zone": "CCU-S",
            "id": "7c750BL",
            "city": "Kolkata"
        },
        {
            "name": "Ajeya Sanghati",
            "lat": 22.480887,
            "lon": 88.337692,
            "address": "47, Mahatma Gandhi Rd, Haridevpur, Paschim Putiary, Kolkata, West Bengal 700082",
            "zone": "CCU-S",
            "id": "TUHOPNV",
            "city": "Kolkata"
        },
        {
            "name": "Ajoynagar Sarbojanin Durgotsav Society",
            "lat": 22.488852,
            "lon": 88.396304,
            "address": "Ajoy Nagar, Mukundapur, Kolkata, West Bengal 700075",
            "zone": "CCU-S",
            "id": "Uo8XY46",
            "city": "Kolkata"
        },
        {
            "name": "Akra Sarbojanin Durgotsab Commitee",
            "lat": 22.518211,
            "lon": 88.238514,
            "address": "Akra, Santoshpur, Kolkata, West Bengal 700140",
            "zone": "CCU-S",
            "id": "tLCJArt",
            "city": "Kolkata"
        },
        {
            "name": "Akrur Dutta Dalanbari",
            "lat": 22.565216,
            "lon": 88.359976,
            "address": "Akrur Dutta Ln, Chandni Chowk, Kolkata - 700013, WB, India",
            "zone": "CCU-N",
            "id": "Kz2NKJT",
            "city": "Kolkata"
        },
        {
            "name": "Alipore Sarbojanin Durgotsav Committee",
            "lat": 22.518574,
            "lon": 88.335492,
            "address": "27/1 A, Alipore Road, Alipore, Kolkata, West Bengal 700027",
            "zone": "CCU-S",
            "id": "Q3HZyfE",
            "city": "Kolkata"
        },
        {
            "name": "Amarabati Durga Puja Committee",
            "lat": 22.523788,
            "lon": 88.392602,
            "address": "220, Naskarhat Rd, Amrabati, Kasba, Kolkata, West Bengal 700039",
            "zone": "CCU-S",
            "id": "U6gfc9q",
            "city": "Kolkata"
        },
        {
            "name": "Amarabati Kalyan Samiti ",
            "lat": 22.6986888,
            "lon": 88.3884876,
            "address": "Sodepur, Khardaha - 700110, WB, India",
            "zone": "CCU-N",
            "id": "sQGKx6W",
            "city": "Kolkata"
        },
        {
            "name": "Amardip Sangha",
            "lat": 22.484463,
            "lon": 88.330514,
            "address": "192, Motilal Gupta Rd, Sodepur Kalitala, Sukanta Pally, Barisha, Kolkata, West Bengal 700082",
            "zone": "CCU-S",
            "id": "enNnA5p",
            "city": "Kolkata"
        },
        {
            "name": "Amarendra Bhavan",
            "lat": 22.501385,
            "lon": 88.318826,
            "address": "4/1, Roy Bahadur Rd, Auddy",
            "zone": "CCU-S",
            "id": "sAXtMFZ",
            "city": "Kolkata"
        },
        {
            "name": "Ambagan Durga Puja",
            "lat": 22.590099,
            "lon": 88.240726,
            "address": "Kamrangu, Andul, Mahiari, West Bengal 711302",
            "zone": "HWH",
            "id": "ChuE0NB",
            "city": "Kolkata"
        },
        {
            "name": "Amherst Sarbojanin Durgotsab",
            "lat": 22.57877,
            "lon": 88.369713,
            "address": "50, Raja Ram Mohan Sarani, Machuabazar, Kolkata, West Bengal 700009",
            "zone": "CCU-C",
            "id": "F5BKD9f",
            "city": "Kolkata"
        },
        {
            "name": "Amra Sabai - Ramdulal Sarkar Street",
            "lat": 22.588011,
            "lon": 88.366857,
            "address": "Ramdulal Sarkar Street, Girish Park, Kolkata - 700003, WB, India",
            "zone": "CCU-N",
            "id": "6m5uidx",
            "city": "Kolkata"
        },
        {
            "name": "Amritlal Dawn Debottar Estate",
            "lat": 22.596382,
            "lon": 88.361089,
            "address": "Daw Ln, Ward 19, Kolkata - 700037, WB, India",
            "zone": "CCU-N",
            "id": "CF4k6GT",
            "city": "Kolkata"
        },
        {
            "name": "Ananda Complex Residential Durga Puja Committee",
            "lat": 22.616942,
            "lon": 88.383574,
            "address": "Ananda Complex, Nilmoni Dey Ln, Mitrabagan Basti, Paikpara, Kolkata, West Bengal 700002",
            "zone": "CCU-N",
            "id": "VaN80Qu",
            "city": "Kolkata"
        },
        {
            "name": "Andul Dutta Chaudhury Bari Durga Puja",
            "lat": 22.584944,
            "lon": 88.232921,
            "address": "Dutta Chaudhury Bari Ln, Andul, Argari, West Bengal 711302",
            "zone": "HWH",
            "id": "ILTlHef",
            "city": "Kolkata"
        },
        {
            "name": "Anupama Housing Complex",
            "lat": 22.629539,
            "lon": 88.432876,
            "address": "Rajarhat Gopalpur, Bidhannagar - 700052, WB, India",
            "zone": "CCU-N",
            "id": "8V9fpU9",
            "city": "Kolkata"
        },
        {
            "name": "Ariadaha Jubak Sangha",
            "lat": 22.6714013,
            "lon": 88.3634263,
            "address": "Baranagar - 700057, WB, India",
            "zone": "CCU-N",
            "id": "ueyg8Vo",
            "city": "Kolkata"
        },
        {
            "name": "Arjunpur Amra Sabai Club",
            "lat": 22.62433,
            "lon": 88.42446,
            "address": "Radha Krishna Sweets, NB - 116, E Mall Rd, Bidhannagar - 700080, WB, India",
            "zone": "CCU-N",
            "id": "yeb5nbr",
            "city": "Kolkata"
        },
        {
            "name": "Arunachal Sarbojanin Durgotsab Committee",
            "lat": 22.692721,
            "lon": 88.384381,
            "address": "Arunachal, Sodepur, Khardaha, West Bengal 700110",
            "zone": "CCU-N",
            "id": "4fEWz6v",
            "city": "Kolkata"
        },
        {
            "name": "Arupara Milan Sangha - Howrah",
            "lat": 22.597847,
            "lon": 88.300949,
            "address": "Howrah - 711112, WB, India",
            "zone": "HWH",
            "id": "4dxCjlJ",
            "city": "Kolkata"
        },
        {
            "name": "Aswininagar Sarbojanin Durgotsav [Abhiyatrik Club]",
            "lat": 22.606977,
            "lon": 88.43276,
            "address": "Aswininagar, Baguiati, Kolkata, West Bengal 700159",
            "zone": "CCU-E",
            "id": "WXBwsdM",
            "city": "Kolkata"
        },
        {
            "name": "Azadgarh",
            "lat": 22.484604,
            "lon": 88.356171,
            "address": "Minapara Road, Aswini Nagar, Kolkata - 700092, WB, India",
            "zone": "CCU-S",
            "id": "yg6ZLrt",
            "city": "Kolkata"
        },
        {
            "name": "B. N. B. L. Netaji Sangha",
            "lat": 22.661635,
            "lon": 88.389285,
            "address": "Nagendra Bhattacharjee Lane, Goyal Para, Belghoria , Kolkata 700056",
            "zone": "CCU-N",
            "id": "NBGu8v1",
            "city": "Kolkata"
        },
        {
            "name": "BA Block",
            "lat": 22.585133,
            "lon": 88.459621,
            "address": "BA Block, Action Area I,New Town, West Bengal 700156",
            "zone": "CCU-E",
            "id": "YtYayNw",
            "city": "Kolkata"
        },
        {
            "name": "BA Block",
            "lat": 22.5888325,
            "lon": 88.3985726,
            "address": "BA Block, Bidhannagar - 700054, WB, India",
            "zone": "CCU-E",
            "id": "3CEOu1z",
            "city": "Kolkata"
        },
        {
            "name": "BB Block Residents Association",
            "lat": 22.591803,
            "lon": 88.402764,
            "address": "BB Block, Sector 1, Salt Lake City, Kolkata, West Bengal 700064",
            "zone": "CCU-E",
            "id": "RMKX14j",
            "city": "Kolkata"
        },
        {
            "name": "BC Block",
            "lat": 22.5929856,
            "lon": 88.4043323,
            "address": "225, 1st Avenue, Sector I, Bidhannagar - 700064, WB, India",
            "zone": "CCU-E",
            "id": "SbxJ9AC",
            "city": "Kolkata"
        },
        {
            "name": "BD Block",
            "lat": 22.5948864,
            "lon": 88.4082726,
            "address": "Sector I, Bidhannagar - 700064, WB, India",
            "zone": "CCU-E",
            "id": "CpV5hcn",
            "city": "Kolkata"
        },
        {
            "name": "BD Block Sarbojanin Durgotsab",
            "lat": 22.595025,
            "lon": 88.407549,
            "address": "BD Block, Sector 1, Salt Lake City, Kolkata, West Bengal 700064",
            "zone": "CCU-E",
            "id": "Im311MH",
            "city": "Kolkata"
        },
        {
            "name": "BE (East) Puja Committee",
            "lat": 22.597271,
            "lon": 88.413822,
            "address": "BE Block, Sector 1, Salt Lake City, Kolkata, West Bengal 700064",
            "zone": "CCU-E",
            "id": "Sh4WJgq",
            "city": "Kolkata"
        },
        {
            "name": "BE Block",
            "lat": 22.5979131,
            "lon": 88.4131218,
            "address": "393, Sector I, Kolkata - 700064, WB, India",
            "zone": "CCU-E",
            "id": "Ja2pNv1",
            "city": "Kolkata"
        },
        {
            "name": "BG Block",
            "lat": 22.5953985,
            "lon": 88.4225156,
            "address": "Sector II, Bidhannagar - 700101, WB, India",
            "zone": "CCU-E",
            "id": "EfaOUbS",
            "city": "Kolkata"
        },
        {
            "name": "BH Block Society",
            "lat": 22.593244,
            "lon": 88.425314,
            "address": "BH Block, Sector II, Salt Lake City, Kolkata, West Bengal 700091",
            "zone": "CCU-E",
            "id": "aasR9Uv",
            "city": "Kolkata"
        },
        {
            "name": "BK Block",
            "lat": 22.5876407,
            "lon": 88.4288779,
            "address": "Sector II, Bidhannagar - 700102, WB, India",
            "zone": "CCU-E",
            "id": "WPXxp3f",
            "city": "Kolkata"
        },
        {
            "name": "BK Paul Park Sarbojanin Durgotsav",
            "lat": 22.5958882,
            "lon": 88.3596035,
            "address": "19, BK Paul Avenue, Kolkata- 700005, West Bengal",
            "zone": "CCU-N",
            "id": "QbUzdBr",
            "city": "Kolkata"
        },
        {
            "name": "BL Block",
            "lat": 22.5846852,
            "lon": 88.4313014,
            "address": "Sector V, Bidhannagar - 700102, WB, India",
            "zone": "CCU-E",
            "id": "wU2VBUB",
            "city": "Kolkata"
        },
        {
            "name": "BL Block Durga Puja",
            "lat": 22.585153,
            "lon": 88.430011,
            "address": "BL Block,Sector-II, Salt Lake City, Kolkata, West Bengal 700091",
            "zone": "CCU-E",
            "id": "D3D8FJ5",
            "city": "Kolkata"
        },
        {
            "name": "Babubagan Club",
            "lat": 22.507931,
            "lon": 88.369024,
            "address": "14, Babu Bagan Ln, Dhakuria, Babu Bagan, Selimpur, Kolkata, West Bengal 700031",
            "zone": "CCU-S",
            "id": "23AteTk",
            "city": "Kolkata"
        },
        {
            "name": "Badamtala Ashar Sangha",
            "lat": 22.517936,
            "lon": 88.34375,
            "address": "5, Nepal Bhattacharjee St, Kalighat, Kolkata, West Bengal 700026",
            "zone": "CCU-S",
            "id": "3arE591",
            "city": "Kolkata"
        },
        {
            "name": "Badan Chandra Roy Bari",
            "lat": 22.575254,
            "lon": 88.358339,
            "address": "Colootola Street, Central Avenue 2, Kolkata - 700073, WB, India",
            "zone": "CCU-N",
            "id": "yy3L0V4",
            "city": "Kolkata"
        },
        {
            "name": "Baganbari Athletic Club",
            "lat": 22.571163,
            "lon": 88.395721,
            "address": "73, Narkel Danga Main Road , Kolkata - 700054",
            "zone": "CCU-E",
            "id": "A9903E5",
            "city": "Kolkata"
        },
        {
            "name": "Bagbadini Bayam Samity",
            "lat": 22.584392,
            "lon": 88.327829,
            "address": "10, Lakshman Das Lane, Kadam Tala, Howrah, West Bengal 711101",
            "zone": "HWH",
            "id": "UOrf74B",
            "city": "Kolkata"
        },
        {
            "name": "Bagbazar Sarbajanin Durgotsav",
            "lat": 22.604635,
            "lon": 88.366046,
            "address": "Bagbazar St, Baghbazar, Kolkata, West Bengal 700003",
            "zone": "CCU-N",
            "id": "ATU64Mi",
            "city": "Kolkata"
        },
        {
            "name": "Baghajatin B And C Block Durgotsav Committee [Baghajatin Sporting Club Durga Puja]",
            "lat": 22.484086,
            "lon": 88.376085,
            "address": "Baghajatin C Block, Chittaranjan Colony 6, Maidan, Kolkata, West Bengal 700092",
            "zone": "CCU-S",
            "id": "8ELMDWa",
            "city": "Kolkata"
        },
        {
            "name": "Baghajatin Park Housing Society Puja Committee",
            "lat": 22.47953,
            "lon": 88.392807,
            "address": "Krishak Pally, Pancha Sayar, Kolkata, West Bengal 700094",
            "zone": "CCU-S",
            "id": "kjy5xJl",
            "city": "Kolkata"
        },
        {
            "name": "Baghajatin Udayan Sangha",
            "lat": 22.485561,
            "lon": 88.371257,
            "address": "A/86/1, Bijoygarh, Layalka, Jadavpur, Kolkata, West Bengal 700092",
            "zone": "CCU-S",
            "id": "tekoTpN",
            "city": "Kolkata"
        },
        {
            "name": "Baghbazaar Haldarbari Durgapuja",
            "lat": 22.603509,
            "lon": 88.36674,
            "address": "Bag Bazar, Kolkata - 700004, WB, India",
            "zone": "CCU-N",
            "id": "5euKryo",
            "city": "Kolkata"
        },
        {
            "name": "Baghbazar Durga Puja Pandal",
            "lat": 22.602178,
            "lon": 88.372078,
            "address": "Brindaban Pal Ln, Bidhan Sarani, Baghbazar, Kolkata, West Bengal 700003",
            "zone": "CCU-N",
            "id": "5yM1fXR",
            "city": "Kolkata"
        },
        {
            "name": "Baghbazar Jagodharti",
            "lat": 22.603493,
            "lon": 88.371101,
            "address": "Pasupati Bose Ln, Chitpur North, Kolkata - 700004, WB, India",
            "zone": "CCU-N",
            "id": "Y2Vme96",
            "city": "Kolkata"
        },
        {
            "name": "Baghbazar Palli Puja O Pradarshani Durga Puja",
            "lat": 22.602818,
            "lon": 88.367354,
            "address": "P/, 12, Bagbazar St, Bidhan Sarani, Baghbazar, Kolkata, West Bengal 700003",
            "zone": "CCU-N",
            "id": "xqlrunH",
            "city": "Kolkata"
        },
        {
            "name": "Baghbazar Sarbojonin Durga Puja",
            "lat": 22.604677,
            "lon": 88.367247,
            "address": "Sovabazar",
            "zone": " Baghbazar",
            "id": " Kolkata",
            "city": "Kolkata"
        },
        {
            "name": "Baishali Pally Adhibasi Brinda",
            "lat": 22.509778,
            "lon": 88.390372,
            "address": "P.Majumdar Road, Baishali Pally, Kolkata-700078",
            "zone": "CCU-S",
            "id": "V9bSPL9",
            "city": "Kolkata"
        },
        {
            "name": "Baishnab Ghata Jatra Suru",
            "lat": 22.470576,
            "lon": 88.377922,
            "address": "101B, Raja Subodh Chandra Mallick Rd, Baishnabghata, Garia, Kolkata, West Bengal 700047",
            "zone": "CCU-S",
            "id": "hUHMWYh",
            "city": "Kolkata"
        },
        {
            "name": "Baishnabghata Pashimpara Sarbojanin Durgotsab",
            "lat": 22.470842,
            "lon": 88.37186,
            "address": "5/1, Baishnabghata Bye Lane, Naktala, Garia, Kolkata-700047",
            "zone": "CCU-S",
            "id": "RAphfCI",
            "city": "Kolkata"
        },
        {
            "name": "Baishnabghata Patuli Upanagari",
            "lat": 22.471201,
            "lon": 88.380142,
            "address": "Baghajatin, Kolkata - 700086, WB, India",
            "zone": "CCU-S",
            "id": "FzpupLx",
            "city": "Kolkata"
        },
        {
            "name": "Baishnabghata Patuli Upanagori Sarbojanin Durgotsab Committee",
            "lat": 22.473449,
            "lon": 88.387067,
            "address": "J 77 ,Baishnabghata Patuli Township, Kolkata 700094",
            "zone": "CCU-S",
            "id": "yoWyDCU",
            "city": "Kolkata"
        },
        {
            "name": "Baisnabdas Mallick Bari",
            "lat": 22.587439,
            "lon": 88.354258,
            "address": "Darpanarayan Tagore St, Jagganath Ghat, Kolkata - 700007, WB, India",
            "zone": "CCU-N",
            "id": "iMW8N4s",
            "city": "Kolkata"
        },
        {
            "name": "Bakul Bagan Sarbojanin",
            "lat": 22.52673,
            "lon": 88.347397,
            "address": "Bhowanipore, Kolkata - 700025, WB, India",
            "zone": "CCU-S",
            "id": "HV4iWgC",
            "city": "Kolkata"
        },
        {
            "name": "Balak Brinda Club (Prafulla Kanan, Kestopur)",
            "lat": 22.602103,
            "lon": 88.424894,
            "address": "AC 62, Prafulla Kanan Rd, Rabindrapally, Kestopur, Kolkata, West Bengal 700101",
            "zone": "CCU-E",
            "id": "BNIlbe4",
            "city": "Kolkata"
        },
        {
            "name": "Balak Sangha",
            "lat": 22.7046903,
            "lon": 88.3721592,
            "address": "Sodepur, Khardaha - 700114, WB, India",
            "zone": "CCU-N",
            "id": "pdqVRpW",
            "city": "Kolkata"
        },
        {
            "name": "Balaka Abasan Puja Committee",
            "lat": 22.574399,
            "lon": 88.453674,
            "address": "Balaka Abasan,CG Block, Action Area I, Newtown, Kolkata- 700156",
            "zone": "CCU-E",
            "id": "RCMTWUc",
            "city": "Kolkata"
        },
        {
            "name": "Balaram Dey Street Dutta Bari",
            "lat": 22.587589,
            "lon": 88.362649,
            "address": "159, Balaram Dey St, Ram Bagan, Kolkata, West Bengal 700006",
            "zone": "CCU-N",
            "id": "AWbjFvU",
            "city": "Kolkata"
        },
        {
            "name": "Balia Baishakhi Sangha",
            "lat": 22.465184,
            "lon": 88.40057,
            "address": "Garia Station Road, West Balia, Kolkata-700084",
            "zone": "CCU-S",
            "id": "jJkYAoZ",
            "city": "Kolkata"
        },
        {
            "name": "Bally Deshbandhu Club Durga Puja Committee (Bally House)",
            "lat": 22.644727,
            "lon": 88.351644,
            "address": "368, Grand Trunk Rd, Bally, Howrah, West Bengal 711201",
            "zone": "HWH",
            "id": "ayFgPeL",
            "city": "Kolkata"
        },
        {
            "name": "Bally Jora-Aswathatala Sarbojonin",
            "lat": 22.64695,
            "lon": 88.341847,
            "address": "78, Goswami Para Rd, Bally, Howrah, West Bengal 711201",
            "zone": "HWH",
            "id": "IMezYx9",
            "city": "Kolkata"
        },
        {
            "name": "Ballygunge Cultural Association",
            "lat": 22.51614,
            "lon": 88.355745,
            "address": "Lake Terrace, Lake Terrace, Ballygunge, Kolkata, West Bengal 700029",
            "zone": "CCU-S",
            "id": "aucH5H8",
            "city": "Kolkata"
        },
        {
            "name": "Ballygunge Pally Sarbojanin Durgotsab Committee",
            "lat": 22.526391,
            "lon": 88.357686,
            "address": "8B , Dover Road ,Kolkata-700026",
            "zone": "CCU-S",
            "id": "ocgwYfn",
            "city": "Kolkata"
        },
        {
            "name": "Ballygunge Purba Pally",
            "lat": 22.522062,
            "lon": 88.371234,
            "address": "276/2 P. C. Sarkar, Rash Behari, Rash Behari Ave, Ekdalia, Ballygunge, Kolkata, West Bengal 700019",
            "zone": "CCU-S",
            "id": "ssrQlme",
            "city": "Kolkata"
        },
        {
            "name": "Bandhab Pathagar",
            "lat": 22.7019734,
            "lon": 88.3680975,
            "address": "Sodepur, Khardaha - 700114, WB, India",
            "zone": "CCU-N",
            "id": "il4YH0b",
            "city": "Kolkata"
        },
        {
            "name": "Bandhab Sammilani",
            "lat": 22.507818,
            "lon": 88.367661,
            "address": "Maharaja Tagore Road, Dhakuria, Kolkata - 700031, WB, India",
            "zone": "CCU-S",
            "id": "crjM1OM",
            "city": "Kolkata"
        },
        {
            "name": "Bandhudal Sporting Club Durga Puja",
            "lat": 22.633153,
            "lon": 88.377695,
            "address": "?Nainan Para, Baranagar, Kolkata, West Bengal 700036",
            "zone": "CCU-N",
            "id": "aebGm4I",
            "city": "Kolkata"
        },
        {
            "name": "Bandhusree",
            "lat": 22.493447,
            "lon": 88.316485,
            "address": "Behala, Kolkata - 700034, WB, India",
            "zone": "CCU-S",
            "id": "AOmtJQF",
            "city": "Kolkata"
        },
        {
            "name": "Banerjee Bagan Sarbojanin Durgotsab",
            "lat": 22.608067,
            "lon": 88.34801,
            "address": "21, Banerjee Bagan Ln, Salkia, Howrah, West Bengal 711106",
            "zone": "HWH",
            "id": "8xSxEcg",
            "city": "Kolkata"
        },
        {
            "name": "Bangali Sangha",
            "lat": 22.65379,
            "lon": 88.431569,
            "address": "Khalisha Kota, Birati, Kolkata, West Bengal 700134",
            "zone": "CCU-N",
            "id": "2MINPwh",
            "city": "Kolkata"
        },
        {
            "name": "Bangur Avenue C Block Sarbojanin Durgotsav",
            "lat": 22.603711,
            "lon": 88.4104167,
            "address": "117/1, Block- C, Bangur Avenue, Kolkata- 700055, West Bengal",
            "zone": "CCU-N",
            "id": "FgTwhBJ",
            "city": "Kolkata"
        },
        {
            "name": "Bangur Avenue Protirodh Bahini",
            "lat": 22.607826,
            "lon": 88.409335,
            "address": "Bangur Avenue, P-48, Block A, Kolkata, 700055",
            "zone": "CCU-N",
            "id": "1kYYWk7",
            "city": "Kolkata"
        },
        {
            "name": "Bangur Avenue Protirodh Bahini Sarbojanin Durgotsav",
            "lat": 22.6069,
            "lon": 88.409246,
            "address": "P- 48, Bangur Avenue, Block- C, Bangur, Kolkata- 700055, West Bengal",
            "zone": "CCU-N",
            "id": "r1lAyKQ",
            "city": "Kolkata"
        },
        {
            "name": "Bani Mandir Durga Puja ",
            "lat": 22.6658251,
            "lon": 88.3807199,
            "address": "Bani Mandir Park, Baranagar - 700058, WB, India",
            "zone": "CCU-N",
            "id": "Y1dvQT1",
            "city": "Kolkata"
        },
        {
            "name": "Bankra Yuba Sanmilani",
            "lat": 22.599971,
            "lon": 88.284537,
            "address": "Satashi Pal Para, Old Jagacha, Howrah, West Bengal 711104",
            "zone": "HWH",
            "id": "Kin03Ev",
            "city": "Kolkata"
        },
        {
            "name": "Bansdroni Roynagar Unnayan Samity",
            "lat": 22.473553,
            "lon": 88.360845,
            "address": "9, Naskarpara, Tollygunge, Bansdroni, Kolkata-700070",
            "zone": "CCU-S",
            "id": "pD1GqtP",
            "city": "Kolkata"
        },
        {
            "name": "Bansdroni Sammlita Sarbojanin Durgotsav Committee",
            "lat": 22.473651,
            "lon": 88.358048,
            "address": "10, H.L. Sarkar Road, Bansdroni, Kolkata-700070",
            "zone": "CCU-S",
            "id": "qtAhOkT",
            "city": "Kolkata"
        },
        {
            "name": "Bansdroni Sarbojaneen Durgotsav",
            "lat": 22.474243,
            "lon": 88.357882,
            "address": "Hirendralal Sarkar Rd, Bansdroni Government Colony, Purba Putiary, Kolkata-700070",
            "zone": "CCU-S",
            "id": "rIIrb0r",
            "city": "Kolkata"
        },
        {
            "name": "Bantra Sammilani",
            "lat": 22.597341,
            "lon": 88.318765,
            "address": "43, Chatterjee Para Ln, Tikiapara, Howrah, West Bengal 711101",
            "zone": "HWH",
            "id": "Qhw2g0j",
            "city": "Kolkata"
        },
        {
            "name": "Bantra Sarbojanin Durgotsav",
            "lat": 22.5935,
            "lon": 88.322085,
            "address": "Kadamtala, Tikiapara, Howrah, West Bengal 711101",
            "zone": "HWH",
            "id": "PIU0yxn",
            "city": "Kolkata"
        },
        {
            "name": "Barisha Club",
            "lat": 22.481256,
            "lon": 88.313214,
            "address": "Santosh Roy Rd, Sakher Bazar, Purba Barisha, Kolkata, West Bengal 700008",
            "zone": "CCU-S",
            "id": "juKUW9t",
            "city": "Kolkata"
        },
        {
            "name": "Barisha Janakalyan Sangha Durgotsav Committee",
            "lat": 22.484934,
            "lon": 88.313014,
            "address": "18, Diamond Harbour Rd, Behala Chowrasta, Barisha, Sakher Bazar, Paschim Barisha, Kolkata-700008",
            "zone": "CCU-S",
            "id": "7JjEKWO",
            "city": "Kolkata"
        },
        {
            "name": "Barisha Kumarpara Youngs Club",
            "lat": 22.481595,
            "lon": 88.317097,
            "address": "6/7, Motilal Gupta Rd, Sodepur, Purba Barisha, Kolkata, West Bengal 700008",
            "zone": "CCU-S",
            "id": "YLPydaz",
            "city": "Kolkata"
        },
        {
            "name": "Barisha Maitree Sangha Durgotsab",
            "lat": 22.484116,
            "lon": 88.31754,
            "address": "Nabalia Para Rd, Barisha, Kolkata, West Bengal 700008",
            "zone": "CCU-S",
            "id": "QAqjVEQ",
            "city": "Kolkata"
        },
        {
            "name": "Barisha Milan Mandir",
            "lat": 22.487279,
            "lon": 88.313958,
            "address": "4, Biren Roy Rd, Behala Chowrasta, Bata Colony, Barisha, Kolkata, West Bengal 700008",
            "zone": "CCU-S",
            "id": "SKs9Koy",
            "city": "Kolkata"
        },
        {
            "name": "Barisha Milani Sangha Durga Puja",
            "lat": 22.477121,
            "lon": 88.308909,
            "address": "177, Narayan Roy Rd, Sakher Bazar, Paschim Barisha, Kolkata, West Bengal 700063",
            "zone": "CCU-S",
            "id": "TT0fIXv",
            "city": "Kolkata"
        },
        {
            "name": "Barisha Nabin Sangha",
            "lat": 22.483312,
            "lon": 88.311062,
            "address": "Sakher Bazar, Paschim Barisha, Kolkata, West Bengal 700008",
            "zone": "CCU-S",
            "id": "ngsssz1",
            "city": "Kolkata"
        },
        {
            "name": "Barisha Netaji Sangha",
            "lat": 22.485962,
            "lon": 88.315179,
            "address": "16/a/b, Raja Rammohan Roy Rd, Barisha, Kolkata, West Bengal 700008",
            "zone": "CCU-S",
            "id": "uNrx5h9",
            "city": "Kolkata"
        },
        {
            "name": "Barisha Players Corner",
            "lat": 22.486588,
            "lon": 88.312614,
            "address": "Behala Chowrashta, Biren Roy Road West, Kolkata - 700034, WB, India",
            "zone": "CCU-S",
            "id": "sDiqgRR",
            "city": "Kolkata"
        },
        {
            "name": "Barisha Sabeda Bagan Club",
            "lat": 22.488243,
            "lon": 88.316653,
            "address": "25/A, Raja Rammohan Roy Rd, 18 Bigha, Muradpur, Barisha, Kolkata, West Bengal 700008",
            "zone": "CCU-S",
            "id": "qPaevBx",
            "city": "Kolkata"
        },
        {
            "name": "Barisha Sabuj Sathi Club",
            "lat": 22.47821,
            "lon": 88.310753,
            "address": "Kolkata - 700063, WB, India",
            "zone": "CCU-S",
            "id": "PXKzJEq",
            "city": "Kolkata"
        },
        {
            "name": "Barisha Sarbojanin Durgotsab",
            "lat": 22.4798465,
            "lon": 88.3079846,
            "address": "35, K K Roychowdhury Rd, Subodh Pally, Paschim Barisha, Kolkata, West Bengal 700008",
            "zone": "CCU-S",
            "id": "3aequDQ",
            "city": "Kolkata"
        },
        {
            "name": "Barisha Saterpalli Sammilani Durga Puja",
            "lat": 22.479781,
            "lon": 88.304041,
            "address": "12/12, Sashan Kalitala Road, Behala, Kolkata-700008",
            "zone": "CCU-S",
            "id": "apKBz17",
            "city": "Kolkata"
        },
        {
            "name": "Barisha Shakti Sangha",
            "lat": 22.474384,
            "lon": 88.315862,
            "address": "92, Vidyasagar Sarani, Nutan Pally, Purba Barisha, Kolkata, West Bengal 700008",
            "zone": "CCU-S",
            "id": "O9F7pvW",
            "city": "Kolkata"
        },
        {
            "name": "Barisha Tapoban",
            "lat": 22.476431,
            "lon": 88.310503,
            "address": "Chandi Charan Ghosh Rd, Silpara, Purba Barisha, Kolkata, West Bengal 700008",
            "zone": "CCU-S",
            "id": "H1dpsLw",
            "city": "Kolkata"
        },
        {
            "name": "Barisha Tarun Tirtha",
            "lat": 22.476515,
            "lon": 88.31823,
            "address": "Kolkata - 700008, WB, India",
            "zone": "CCU-S",
            "id": "uJeJRYa",
            "city": "Kolkata"
        },
        {
            "name": "Barisha Tarun Tritha",
            "lat": 22.484503,
            "lon": 88.319269,
            "address": "3, Kalipada Mukherjee Rd, Sakher Bazar, Barisha, Kolkata, West Bengal 700008",
            "zone": "CCU-S",
            "id": "lsImheB",
            "city": "Kolkata"
        },
        {
            "name": "Barisha Udayan Pally Sabojanin Durga Puja",
            "lat": 22.475241,
            "lon": 88.309527,
            "address": "Ward No.125, Diamond Harbour Rd, Udayan Pally, Barisha, Kolkata, West Bengal 700008",
            "zone": "CCU-S",
            "id": "yCPkRYG",
            "city": "Kolkata"
        },
        {
            "name": "Barisha Youth Club",
            "lat": 22.478965,
            "lon": 88.30259,
            "address": "19, Srikrishna Pally, Paschim Barisha, Kolkata, West Bengal 700063",
            "zone": "CCU-S",
            "id": "2ZgfZTp",
            "city": "Kolkata"
        },
        {
            "name": "Barisha Yubak Brinda",
            "lat": 22.486077,
            "lon": 88.312052,
            "address": "13, Biren Roy Rd W, Behala Chowrasta, Sakher Bazar, Paschim Barisha, Kolkata, West Bengal 700008",
            "zone": "CCU-S",
            "id": "ZDvHTf8",
            "city": "Kolkata"
        },
        {
            "name": "Baruipur Pragati Sangha",
            "lat": 22.367221,
            "lon": 88.43189,
            "address": "Subuddhipur, Arup Bhadra Sarani, Baruipur, Kolkata, West Bengal 700144",
            "zone": "CCU-S",
            "id": "tGcePq7",
            "city": "Kolkata"
        },
        {
            "name": "Barun Sporting Club",
            "lat": 22.6931176,
            "lon": 88.3699894,
            "address": "Sodepur, Kamarhati - 700058, WB, India",
            "zone": "CCU-N",
            "id": "huMvu40",
            "city": "Kolkata"
        },
        {
            "name": "Basak Bagan Sarbojanin Durgotsab",
            "lat": 22.612505,
            "lon": 88.398161,
            "address": "30/1-A, Basak Bagan, South Dum Dum, Kolkata, West Bengal 700048",
            "zone": "CCU-N",
            "id": "OdtMQ8s",
            "city": "Kolkata"
        },
        {
            "name": "Batanagar Newland Puja Committee",
            "lat": 22.505262,
            "lon": 88.22905,
            "address": "Das Para, Maheshtala, West Bengal 700140",
            "zone": "CCU-S",
            "id": "aAeaRNT",
            "city": "Kolkata"
        },
        {
            "name": "Batore 41 er Pally Durga Puja",
            "lat": 22.577778,
            "lon": 88.298761,
            "address": "10/3, Baksara Rd, Betore, Baruipara, Ichapur, Howrah, West Bengal 711104",
            "zone": "HWH",
            "id": "a9WBCwG",
            "city": "Kolkata"
        },
        {
            "name": "Bazar Para Sarbojanin Durgapuja",
            "lat": 22.7079714,
            "lon": 88.3657954,
            "address": "Sodepur, Khardaha - 700115, WB, India",
            "zone": "CCU-N",
            "id": "urLCDGY",
            "city": "Kolkata"
        },
        {
            "name": "Beadon Street Sarbojanin",
            "lat": 22.58916,
            "lon": 88.368284,
            "address": "Shobha Bazar East, Kolkata - 700003, WB, India",
            "zone": "CCU-N",
            "id": "HnvT6oS",
            "city": "Kolkata"
        },
        {
            "name": "Beadon Street Sarbojanin Durgotsab",
            "lat": 22.589569,
            "lon": 88.366479,
            "address": "62/5, Abhedananda Rd, Manicktala, Darjipara, Kolkata, West Bengal 700006",
            "zone": "CCU-N",
            "id": "uFSuFVV",
            "city": "Kolkata"
        },
        {
            "name": "Behala 11 Pally Durga Puja [11 Pally Youth Association]",
            "lat": 22.498462,
            "lon": 88.321463,
            "address": "69, Satyen Roy Rd, Indrajit Pally, Behala, Kolkata, West Bengal 700034",
            "zone": "CCU-S",
            "id": "rHDjxiN",
            "city": "Kolkata"
        },
        {
            "name": "Behala 29 Palli",
            "lat": 22.507343,
            "lon": 88.322426,
            "address": "Behala BalanAnda Brahmachari Hospital And Research Center, 151, Diamond Harbour Road, New Alipore, Kolkata - 700034, WB, India",
            "zone": "CCU-S",
            "id": "JtakF1y",
            "city": "Kolkata"
        },
        {
            "name": "Behala Adarsha Pally",
            "lat": 22.499989,
            "lon": 88.327632,
            "address": "Behala, Kolkata - 700053, WB, India",
            "zone": "CCU-S",
            "id": "opAayz5",
            "city": "Kolkata"
        },
        {
            "name": "Behala Arcadia Sarbojanin",
            "lat": 22.4942,
            "lon": 88.315163,
            "address": "Behala, Kolkata - 700034, WB, India",
            "zone": "CCU-S",
            "id": "ZhfxYJf",
            "city": "Kolkata"
        },
        {
            "name": "Behala Arounoday Samity",
            "lat": 22.501411,
            "lon": 88.301092,
            "address": "Rabindra Nagar No 2, Rabindra Nagar, Behala, Kolkata, West Bengal 700060",
            "zone": "CCU-S",
            "id": "Payk4mo",
            "city": "Kolkata"
        },
        {
            "name": "Behala Buroshibtala Janakalyan Sangha",
            "lat": 22.502289,
            "lon": 88.329735,
            "address": "Behala, Kolkata - 700053, WB, India",
            "zone": "CCU-S",
            "id": "jQh0k6E",
            "city": "Kolkata"
        },
        {
            "name": "Behala Buroshibtala Janakalyan Sangha Durga Puja",
            "lat": 22.502507,
            "lon": 88.332437,
            "address": "Manmohan Banerjee Road, Buroshibtalla, Behala, Kolkata, West Bengal 700038",
            "zone": "CCU-S",
            "id": "3BP8ymC",
            "city": "Kolkata"
        },
        {
            "name": "Behala Club",
            "lat": 22.505381,
            "lon": 88.314308,
            "address": "Behala Club, Banamali Naskar Road, Behala, Kolkata - 700060, WB, India",
            "zone": "CCU-S",
            "id": "uWE0bFP",
            "city": "Kolkata"
        },
        {
            "name": "Behala Club Sarbojanin Durgotsav Committee",
            "lat": 22.504681,
            "lon": 88.315704,
            "address": "58/1/1, Banamali Naskar Road, Behala, Kolkata, West Bengal 700060",
            "zone": "CCU-S",
            "id": "08x8eaw",
            "city": "Kolkata"
        },
        {
            "name": "Behala Debdaru Fatak",
            "lat": 22.5026506,
            "lon": 88.3174747,
            "address": "Debdaru Fatak, Ward 131, Kolkata - 700034, WB, India",
            "zone": "CCU-S",
            "id": "sOdN3rI",
            "city": "Kolkata"
        },
        {
            "name": "Behala Friends Gosaipara Sarbojanin",
            "lat": 22.501122,
            "lon": 88.320429,
            "address": "Auddy Bagan Basti, Behala, Kolkata, West Bengal 700034",
            "zone": "CCU-S",
            "id": "0uX6C0Z",
            "city": "Kolkata"
        },
        {
            "name": "Behala Mukul Sangha",
            "lat": 22.503359,
            "lon": 88.313705,
            "address": "Behala, Kolkata - 700034, WB, India",
            "zone": "CCU-S",
            "id": "cwYhx9i",
            "city": "Kolkata"
        },
        {
            "name": "Behala Nutan Dal",
            "lat": 22.500394,
            "lon": 88.320315,
            "address": "16, Sashibhusan Mukherejee Raod, Kolkata, West Bengal 700034",
            "zone": "CCU-S",
            "id": "1ayb1Ga",
            "city": "Kolkata"
        },
        {
            "name": "Behala Nutan Sangha",
            "lat": 22.502183,
            "lon": 88.319064,
            "address": "375, Diamond Harbour Rd, Gholeshapur, Behala, Kolkata, West Bengal 700034",
            "zone": "CCU-S",
            "id": "2nN7olF",
            "city": "Kolkata"
        },
        {
            "name": "Behala Pathak Para Sarbojonin Durgotsav",
            "lat": 22.506745,
            "lon": 88.320911,
            "address": "Pathak Para, Behala, Kolkata, West Bengal 700034",
            "zone": "CCU-S",
            "id": "mYVqSRf",
            "city": "Kolkata"
        },
        {
            "name": "Behala Sangathani Durga Puja Committee",
            "lat": 22.496608,
            "lon": 88.307447,
            "address": "P/149, B G Press Colony, Behala, Kolkata, West Bengal 700034",
            "zone": "CCU-S",
            "id": "ZMqTWSy",
            "city": "Kolkata"
        },
        {
            "name": "Behala Sanjib Palli",
            "lat": 22.487004,
            "lon": 88.309076,
            "address": "Ho Chi Minh Sarani, Sanjib Pally, Behala, Kolkata, West Bengal 700034",
            "zone": "CCU-S",
            "id": "xtgcAtu",
            "city": "Kolkata"
        },
        {
            "name": "Behala Sree Sangha",
            "lat": 22.497669,
            "lon": 88.320183,
            "address": "Behala, Kolkata - 700034, WB, India",
            "zone": "CCU-S",
            "id": "PVlfbRJ",
            "city": "Kolkata"
        },
        {
            "name": "Behala Trishakti Sangha",
            "lat": 22.498367,
            "lon": 88.318985,
            "address": "Nafar Chandra Das Rd, Auddy Bagan Basti, Behala, Kolkata, West Bengal 700034",
            "zone": "CCU-S",
            "id": "kYkDFvt",
            "city": "Kolkata"
        },
        {
            "name": "Behala Youngmens Association",
            "lat": 22.506932,
            "lon": 88.32487,
            "address": "69, Joykrishna Paul Rd, Sahapur, New Alipore, Kolkata, West Bengal 700038",
            "zone": "CCU-S",
            "id": "OJHEyon",
            "city": "Kolkata"
        },
        {
            "name": "Bejoypur Sarbojanin Durga Puja",
            "lat": 22.694359,
            "lon": 88.391579,
            "address": "A/49, Anand Loke Rd, H B Town, Sodepur, Barrackpore, West Bengal 700114",
            "zone": "CCU-N",
            "id": "FwbupEc",
            "city": "Kolkata"
        },
        {
            "name": "Beleghata 33 No Pallibasibrinda",
            "lat": 22.568204,
            "lon": 88.391848,
            "address": "P-225/1, C.I.T Road, Kolkata-700010",
            "zone": "CCU-E",
            "id": "hWLHpIi",
            "city": "Kolkata"
        },
        {
            "name": "Beleghata Nabamilan",
            "lat": 22.565353,
            "lon": 88.396364,
            "address": "P -81,, 10, CIT Rd, Subhas Sarobar Park, Phool Bagan, Beleghata, Kolkata- 700010",
            "zone": "CCU-E",
            "id": "qDp1ier",
            "city": "Kolkata"
        },
        {
            "name": "Beleghata Sandhani",
            "lat": 22.5648434,
            "lon": 88.3961574,
            "address": "Kolkata - 700010, WB, India",
            "zone": "CCU-E",
            "id": "1AciqJt",
            "city": "Kolkata"
        },
        {
            "name": "Beleghata Santi Sangha",
            "lat": 22.561941,
            "lon": 88.391229,
            "address": "26/H/4, Barwaritala Rd, Kulia, Beleghata, Kolkata, West Bengal 700010",
            "zone": "CCU-C",
            "id": "5skh8Pd",
            "city": "Kolkata"
        },
        {
            "name": "Beleghata Sarkar Bazar Vivekananda Sangha Durga Puja",
            "lat": 22.568187,
            "lon": 88.386046,
            "address": "97, KG Bose Sarani, Kundu Bagan, Beleghata, Kolkata, West Bengal 700085",
            "zone": "CCU-C",
            "id": "gJKVoEL",
            "city": "Kolkata"
        },
        {
            "name": "Belgachia Sadharan Durgatsab",
            "lat": 22.609217,
            "lon": 88.383423,
            "address": "Uttarpalli Playground, Nitya Gopal Chatterjee Lane, Paikpara, Kolkata - 700037, WB, India",
            "zone": "CCU-N",
            "id": "MwxJwOc",
            "city": "Kolkata"
        },
        {
            "name": "Belgachia Sadharan Durgotsab Committee",
            "lat": 22.607554,
            "lon": 88.383448,
            "address": "Talapark Circus, Maidan, Kolkata, West Bengal 700037",
            "zone": "CCU-N",
            "id": "yAU8MKf",
            "city": "Kolkata"
        },
        {
            "name": "Belgachia Yuba Sammilani",
            "lat": 22.602764,
            "lon": 88.378991,
            "address": "Bhairab Mukherjee Lane,Kolkata - 700 004.",
            "zone": "CCU-N",
            "id": "ALutkMo",
            "city": "Kolkata"
        },
        {
            "name": "Beliaghata 33 No Palli",
            "lat": 22.566563,
            "lon": 88.393852,
            "address": "Narkeldanga, Kolkata - 700010, WB, India",
            "zone": "CCU-E",
            "id": "xhVD6Pq",
            "city": "Kolkata"
        },
        {
            "name": "Beliaghata 33 Palli",
            "lat": 22.568894,
            "lon": 88.395676,
            "address": "P-225/1, C.I.T Road, Subhas Sarobar Park, Phool Bagan, Beleghata, Kolkata-700010",
            "zone": "CCU-E",
            "id": "N4Th3DO",
            "city": "Kolkata"
        },
        {
            "name": "Beliaghata 33 Pally Adhibasibrindo Sarbojanin Durgotsav",
            "lat": 22.5687627,
            "lon": 88.3914276,
            "address": "94, Hem Chandra Naskar Road, Subhas Sarobar Park, Phool Bagan, Beleghata, Kolkata- 700010, West Bengal",
            "zone": "CCU-E",
            "id": "5aki5NR",
            "city": "Kolkata"
        },
        {
            "name": "Beliaghata Shibtala Adhibasi Brinda",
            "lat": 22.564395,
            "lon": 88.377405,
            "address": "Shibtala Ln, Seal Lane, Tangra, Kolkata-700015",
            "zone": "CCU-C",
            "id": "vxLiUA5",
            "city": "Kolkata"
        },
        {
            "name": "Beltala Sarbojanin Durgotsab",
            "lat": 22.481865,
            "lon": 88.372325,
            "address": "4/64B, Vidyasagar Kolkata - 700047",
            "zone": "CCU-S",
            "id": "07ZQC4K",
            "city": "Kolkata"
        },
        {
            "name": "Beltala Shakti Sangha",
            "lat": 22.5256,
            "lon": 88.351311,
            "address": "Beltala Rd, Bakul Bagan, Bhowanipore, Kolkata, West Bengal 700026",
            "zone": "CCU-S",
            "id": "3WQH1WI",
            "city": "Kolkata"
        },
        {
            "name": "Bengal Boys Training Association",
            "lat": 22.518345,
            "lon": 88.341363,
            "address": "Kalighat Rd, Anami Sangha, Kalighat, Kolkata, West Bengal 700026",
            "zone": "CCU-S",
            "id": "dfPDIDh",
            "city": "Kolkata"
        },
        {
            "name": "Bengal United Club",
            "lat": 22.512084,
            "lon": 88.347812,
            "address": "18, Kabir Rd,Lake Range, Kalighat,Kolkata, West Bengal 700026",
            "zone": "CCU-S",
            "id": "iTAu3L5",
            "city": "Kolkata"
        },
        {
            "name": "Beniapara Sarbojanin Durgatsav",
            "lat": 22.58417,
            "lon": 88.331142,
            "address": "12, Sadar Boxi Lane, Howrah, India 711101",
            "zone": "HWH",
            "id": "RQhm8RL",
            "city": "Kolkata"
        },
        {
            "name": "Betarpally Cultural Association",
            "lat": 22.480255,
            "lon": 88.348795,
            "address": "9/8 C, Chandi Ghosh Rd, Kudghat, Moore Avenue, Tollygunge, Kolkata, West Bengal 700040",
            "zone": "CCU-S",
            "id": "oT6OFH6",
            "city": "Kolkata"
        },
        {
            "name": "Bhagabati Park Durga Puja Committee",
            "lat": 22.61629,
            "lon": 88.41213,
            "address": "100 Jessore Road, Bhagabati Park Kolkata - 700 074",
            "zone": "CCU-N",
            "id": "o3wORhK",
            "city": "Kolkata"
        },
        {
            "name": "Bhai Bhai Sangha Sarbojanin",
            "lat": 22.483172,
            "lon": 88.181112,
            "address": "38/c, Pandit Moti Lal Nehru Road, Samanta Para, Budge Budge, Kolkata, West Bengal 700137",
            "zone": "CCU-S",
            "id": "LmiDqPN",
            "city": "Kolkata"
        },
        {
            "name": "Bharat Mata",
            "lat": 22.488014,
            "lon": 88.36248,
            "address": "Bijoygarh Math, Arabinda Nagar, Kolkata - 700084, WB, India",
            "zone": "CCU-S",
            "id": "rZFVAaj",
            "city": "Kolkata"
        },
        {
            "name": "Bharatiya Tarun Sangha",
            "lat": 22.588852,
            "lon": 88.36371,
            "address": "9B Ashutosh Dey Lane,Near Sekar Bhawan Kolkata -700006",
            "zone": "CCU-N",
            "id": "7leroEP",
            "city": "Kolkata"
        },
        {
            "name": "Bhawanipur 75 Pally",
            "lat": 22.5332948,
            "lon": 88.3454998,
            "address": "Debendra Ghosh Road, Bhowanipore, Kolkata - 700025, WB, India",
            "zone": "CCU-S",
            "id": "m6vcLTY",
            "city": "Kolkata"
        },
        {
            "name": "Bhowanipore De Bari Durga Puja",
            "lat": 22.535016,
            "lon": 88.343559,
            "address": "26/E, Chandra Nath Chatterjee Street, Bhowanipore, Kolkata ? 700025",
            "zone": "CCU-S",
            "id": "sYPsu3y",
            "city": "Kolkata"
        },
        {
            "name": "Bhowanipore Mitra Bari Durga Puja",
            "lat": 22.532572,
            "lon": 88.349327,
            "address": "13, Paddapukur Road, Bhowanipore, Kolkata 700020.",
            "zone": "CCU-S",
            "id": "52ewO56",
            "city": "Kolkata"
        },
        {
            "name": "Bhowanipur Muktadal",
            "lat": 22.527443,
            "lon": 88.343616,
            "address": "Harish Mukherjee Rd, Jatin Das Park, Patuapara, Bhowanipore, Kolkata, West Bengal 700025",
            "zone": "CCU-S",
            "id": "nWfT6or",
            "city": "Kolkata"
        },
        {
            "name": "Bhowanipur Ritwik Club Durga Puja Committee",
            "lat": 22.533087,
            "lon": 88.346934,
            "address": "76 A/76B, Padda PUkur Road, Bhowanipore, Kolkata, West Bengal 700020",
            "zone": "CCU-S",
            "id": "weZ3gij",
            "city": "Kolkata"
        },
        {
            "name": "Bhowanipur Sanatan Dharmatsahini Sabha",
            "lat": 22.529031,
            "lon": 88.342999,
            "address": "33, Balaram Bose Ghat Road, Kolkata-700025",
            "zone": "CCU-S",
            "id": "wh6SEES",
            "city": "Kolkata"
        },
        {
            "name": "Bhowanipur Sarbojanin Durgotsav",
            "lat": 22.532387,
            "lon": 88.3435,
            "address": "Harish Mukherjee Road Kol- 700025",
            "zone": "CCU-S",
            "id": "ZSFlc3d",
            "city": "Kolkata"
        },
        {
            "name": "Bhowanipur Students Club Sarbojanin Durga Puja",
            "lat": 22.534287,
            "lon": 88.338926,
            "address": "7/1, Bijoy Basu Rd, Bhowanipore. Kolkata, West Bengal 70002",
            "zone": "CCU-S",
            "id": "wJyyZ5L",
            "city": "Kolkata"
        },
        {
            "name": "Bhowanipur Swadhin Sangha",
            "lat": 22.531966,
            "lon": 88.346481,
            "address": "40B, Mahesh Chowdhury Street, Paddapukur, Bhowanipore, Kolkata, West Bengal 700025",
            "zone": "CCU-S",
            "id": "UPP9qKC",
            "city": "Kolkata"
        },
        {
            "name": "Bhowanipur Udayan Club Durga Puja",
            "lat": 22.528153,
            "lon": 88.351379,
            "address": "1, Benoy Bose Lane, Kolkata-700025",
            "zone": "CCU-S",
            "id": "beVmMuA",
            "city": "Kolkata"
        },
        {
            "name": "Bidhanpally Adhibasibrinda",
            "lat": 22.467784,
            "lon": 88.371933,
            "address": "117 Bidhan Pally Kolkata -700048",
            "zone": "CCU-S",
            "id": "fYV8FTx",
            "city": "Kolkata"
        },
        {
            "name": "Bidhanpally Purbapara Sarbojanin Durgotsav Committee",
            "lat": 22.468541,
            "lon": 88.37241,
            "address": "BIidhanpally, Garia, Kolkata-700084",
            "zone": "CCU-S",
            "id": "8QhA337",
            "city": "Kolkata"
        },
        {
            "name": "Bijoypur Town Club",
            "lat": 22.6941069,
            "lon": 88.3922172,
            "address": "Sodepur, Panihati - 700111, WB, India",
            "zone": "CCU-N",
            "id": "y3fCGSn",
            "city": "Kolkata"
        },
        {
            "name": "Binayak Residency Durgotsav Committee",
            "lat": 22.52479,
            "lon": 88.370419,
            "address": "6/5C, 6/5D & 7A, Anil Maitra Rd, Ballygunge Place, Ballygunge, Kolkata, West Bengal 700019",
            "zone": "CCU-S",
            "id": "iPJI2KF",
            "city": "Kolkata"
        },
        {
            "name": "Bishalaxmitala Sarbojanin Durga Puja Committee",
            "lat": 22.50926,
            "lon": 88.315284,
            "address": "8,Bishalaxmitala Road, Naskarpur, Behala, Kolkata, West Bengal 700060",
            "zone": "CCU-S",
            "id": "sSRiCaK",
            "city": "Kolkata"
        },
        {
            "name": "Bose Barir Puja (Panihati)",
            "lat": 22.69322222,
            "lon": 88.37097222,
            "address": "Sodepur, Kamarhati - 700114, WB, India",
            "zone": "CCU-N",
            "id": "vgZptuF",
            "city": "Kolkata"
        },
        {
            "name": "Bosepukur Parijat Club Sarbojanin Durga Puja",
            "lat": 22.523353,
            "lon": 88.382366,
            "address": "Bose Pukur Rd, Bosepukur, Kasba, Kolkata, West Bengal 700039",
            "zone": "CCU-S",
            "id": "Iyhvin4",
            "city": "Kolkata"
        },
        {
            "name": "Bosepukur Sitala Mandir",
            "lat": 22.516581,
            "lon": 88.388023,
            "address": "Loknath Pharmacy, 198, Rajdanga Purbapara RB Connector, Ward 107, Kolkata - 700078, WB, India",
            "zone": "CCU-S",
            "id": "3cLnwWE",
            "city": "Kolkata"
        },
        {
            "name": "Bosepukur Sitala Mandir Durgotsab Committee",
            "lat": 22.519241,
            "lon": 88.38499,
            "address": "Bosepukur Road,Kasba, 1/27, Kolkata, West Bengal 700042",
            "zone": "CCU-S",
            "id": "aSiXFwB",
            "city": "Kolkata"
        },
        {
            "name": "Bosepukur Talbagan",
            "lat": 22.517492,
            "lon": 88.38533,
            "address": "Rajkrishna Chatterjee Road, Kasbah North, Kolkata - 700039, WB, India",
            "zone": "CCU-S",
            "id": "le9V0d3",
            "city": "Kolkata"
        },
        {
            "name": "Bosepukur Talbagan Sarbojanin",
            "lat": 22.516664,
            "lon": 88.382412,
            "address": "Tal Bagan, Bosepukur, Kasba, Kolkata, 700042",
            "zone": "CCU-S",
            "id": "YR9wlnE",
            "city": "Kolkata"
        },
        {
            "name": "Brahmapur Harisava Sarbojanin Durgotsav",
            "lat": 22.46566,
            "lon": 88.36391,
            "address": "46 Harisava Math, Brahmapur, N G Park, Bansdroni, Kolkata, West Bengal 700084",
            "zone": "CCU-S",
            "id": "OFqBKWk",
            "city": "Kolkata"
        },
        {
            "name": "Brijee Unnayan Samity Durgotsab Committee",
            "lat": 22.468466,
            "lon": 88.384922,
            "address": "West,, Briji Road, Sreerampur, Garia, Kolkata, West Bengal 700084",
            "zone": "CCU-S",
            "id": "I3Hc5da",
            "city": "Kolkata"
        },
        {
            "name": "Brindaban Matri Mandir",
            "lat": 22.582521,
            "lon": 88.373226,
            "address": "16, Brindaban Mullick First Lane., Sukhiya Street, Kolkata, West Bengal 700009",
            "zone": "CCU-C",
            "id": "2Hne2tG",
            "city": "Kolkata"
        },
        {
            "name": "Brindabon Netaji Balak Sangha",
            "lat": 22.585947,
            "lon": 88.317319,
            "address": "5,, 11/4, Brindaban Mullick Ln, Bantra, Ichapur, Howrah, West Bengal 711104",
            "zone": "HWH",
            "id": "rdvc2SK",
            "city": "Kolkata"
        },
        {
            "name": "C N Roy Road Govt. Housing Estate Durga Puja Committee",
            "lat": 22.530905,
            "lon": 88.38752,
            "address": "Chandra Nath Roy Rd, Tiljala, Topsia, Kolkata, West Bengal 700039",
            "zone": "CCU-S",
            "id": "w3SJyoU",
            "city": "Kolkata"
        },
        {
            "name": "CB Block",
            "lat": 22.5888806,
            "lon": 88.4034229,
            "address": "CB Block Park, Bidhannagar - 700048, WB, India",
            "zone": "CCU-E",
            "id": "XvBTNZJ",
            "city": "Kolkata"
        },
        {
            "name": "CD Block",
            "lat": 22.5919194,
            "lon": 88.409485,
            "address": "265, Bidhannagar - 700048, WB, India",
            "zone": "CCU-E",
            "id": "CBIgH9z",
            "city": "Kolkata"
        },
        {
            "name": "CE Block",
            "lat": 22.5949341,
            "lon": 88.4131218,
            "address": "Jhupri Market, BE-56, BE Block, Kolkata - 700064, WB, India",
            "zone": "CCU-E",
            "id": "RaWoiKe",
            "city": "Kolkata"
        },
        {
            "name": "CF Block Residents Association",
            "lat": 22.594028,
            "lon": 88.418076,
            "address": "CF, CF Block, Sector 1, Salt Lake City, Kolkata, West Bengal 700064",
            "zone": "CCU-E",
            "id": "rhzocdY",
            "city": "Kolkata"
        },
        {
            "name": "CG Block",
            "lat": 22.5920383,
            "lon": 88.4216066,
            "address": "Sector II, Bidhannagar - 700101, WB, India",
            "zone": "CCU-E",
            "id": "NVE0iZT",
            "city": "Kolkata"
        },
        {
            "name": "CIT Park Goabagan Sarbojanin Durgotsav Samity",
            "lat": 22.591168,
            "lon": 88.372663,
            "address": "10A, Sahitya Parishad Street, Kolkata ? 700006",
            "zone": "CCU-N",
            "id": "Jf94GWz",
            "city": "Kolkata"
        },
        {
            "name": "CIT Sarbojanin",
            "lat": 22.633426,
            "lon": 88.377465,
            "address": "Baranagar Police Station, 47, Barrackpore Trunk Road, Baranagar - 700090, WB, India",
            "zone": "CCU-N",
            "id": "ng1tmeW",
            "city": "Kolkata"
        },
        {
            "name": "Capricorn Springfield Flat Owners Association (Pilot Bari)",
            "lat": 22.472149,
            "lon": 88.356649,
            "address": "Benoy Pally, Aurobindo Park, Kolkata, West Bengal 700070",
            "zone": "CCU-S",
            "id": "eFJGy4p",
            "city": "Kolkata"
        },
        {
            "name": "Central Calcutta Youth Association Durga Puja Committee",
            "lat": 22.563772,
            "lon": 88.3625,
            "address": "37, Gokul Boral St, Bowbazar, Kolkata, West Bengal 700016",
            "zone": "CCU-C",
            "id": "1fxKTmX",
            "city": "Kolkata"
        },
        {
            "name": "Chakpara Jubak Brinda Sarbojanin Durgotsav",
            "lat": 22.615008,
            "lon": 88.317546,
            "address": "Liluah, Chakpara, West Bengal 711204",
            "zone": "HWH",
            "id": "f85qYcK",
            "city": "Kolkata"
        },
        {
            "name": "Chakraberia Sarbojanin",
            "lat": 22.533646,
            "lon": 88.351891,
            "address": "Chakraberia Trikon Park, Ward 70, Kolkata - 700019, WB, India",
            "zone": "CCU-S",
            "id": "FIIfXlf",
            "city": "Kolkata"
        },
        {
            "name": "Chakraberia Sarbojanin Durgotsab",
            "lat": 22.532162,
            "lon": 88.349536,
            "address": "58A, Chakraberia Road (North), Kolkata, West Bengal 700020",
            "zone": "CCU-S",
            "id": "kKHjs4r",
            "city": "Kolkata"
        },
        {
            "name": "Chanditala Sarbojanin Durgotsab Samity",
            "lat": 22.499808,
            "lon": 88.330494,
            "address": "186, Roy Bahadur Rd, Ajoy Nagar, Tara Park, Behala, Kolkata, West Bengal 700053",
            "zone": "CCU-S",
            "id": "rXJaxaS",
            "city": "Kolkata"
        },
        {
            "name": "Chandranat Chatterjee Street Sarbojanin Durgotsab",
            "lat": 22.534751,
            "lon": 88.345869,
            "address": "2/1 A, Chandranath Chatterjee Street, Bhawanipur, Kolkata - 700025",
            "zone": "CCU-S",
            "id": "qGDZW88",
            "city": "Kolkata"
        },
        {
            "name": "Chandranath Chatterjee Street",
            "lat": 22.52669,
            "lon": 88.345848,
            "address": "Seagull, 31A, Shyama Prasad Mukherjee Road, Ward 72, Kolkata - 700053, WB, India",
            "zone": "CCU-S",
            "id": "iIxgTol",
            "city": "Kolkata"
        },
        {
            "name": "Chata Pora Banerjee Bari",
            "lat": 22.6870535,
            "lon": 88.3701678,
            "address": "Sodepur, Kamarhati - 700058, WB, India",
            "zone": "CCU-N",
            "id": "EbxxUrQ",
            "city": "Kolkata"
        },
        {
            "name": "Chatterjee Colony Puja Committee",
            "lat": 22.506416,
            "lon": 88.330704,
            "address": "P-130 A,S.N Roy Road,Kolkata-700038",
            "zone": "CCU-S",
            "id": "gtu48Ox",
            "city": "Kolkata"
        },
        {
            "name": "Chetla Agrani Club",
            "lat": 22.516266,
            "lon": 88.336802,
            "address": "14, Peary Mohan Roy Rd, Chetla, Kolkata, West Bengal 700027",
            "zone": "CCU-S",
            "id": "ptHQmyi",
            "city": "Kolkata"
        },
        {
            "name": "Chetla Central Association",
            "lat": 22.517737,
            "lon": 88.334206,
            "address": "33/4A, Chetla Central Rd, Chetla, Kolkata, West Bengal 700027",
            "zone": "CCU-S",
            "id": "oSCqHNp",
            "city": "Kolkata"
        },
        {
            "name": "Chetla Sarbasadharaner Durgotsab",
            "lat": 22.517326,
            "lon": 88.339939,
            "address": "Shop No-69/3B,, Chetla Rd, Kolkata, West Bengal 700027",
            "zone": "CCU-S",
            "id": "nvUyYnd",
            "city": "Kolkata"
        },
        {
            "name": "Chorbagan Chatterjee House",
            "lat": 22.582254,
            "lon": 88.362941,
            "address": "Muktaram Babu Ln, Machua Bazar, Kolkata - 700007, WB, India",
            "zone": "CCU-N",
            "id": "VmfYSRl",
            "city": "Kolkata"
        },
        {
            "name": "Chorbagan Mitra Bari",
            "lat": 22.582407,
            "lon": 88.362429,
            "address": "Muktaram Babu Street, Machua Bazar, Kolkata - 700007, WB, India",
            "zone": "CCU-N",
            "id": "EIfW4Te",
            "city": "Kolkata"
        },
        {
            "name": "Chorbagan Seal Bagan",
            "lat": 22.582938,
            "lon": 88.359263,
            "address": "Muktaram Babu Street, Machua Bazar, Kolkata - 700007, WB, India",
            "zone": "CCU-N",
            "id": "55RWYr5",
            "city": "Kolkata"
        },
        {
            "name": "Club Road Bylane Durga Puja Committee",
            "lat": 22.7037187,
            "lon": 88.3718286,
            "address": "Sodepur, Khardaha - 700114, WB, India",
            "zone": "CCU-N",
            "id": "tdy0Rc8",
            "city": "Kolkata"
        },
        {
            "name": "College Square Sarbojanin Durgotsab Committee",
            "lat": 22.574407,
            "lon": 88.364361,
            "address": "Lalbajar, College Square, Kolkata, West Bengal 700012",
            "zone": "CCU-C",
            "id": "c0OvSO2",
            "city": "Kolkata"
        },
        {
            "name": "Colootala Dhar Bari",
            "lat": 22.573947,
            "lon": 88.357806,
            "address": "Dendra Mullick Ln, Central Avenue 2, Kolkata - 700073, WB, India",
            "zone": "CCU-N",
            "id": "GGSPuTi",
            "city": "Kolkata"
        },
        {
            "name": "Cossipore I.H.E Tenant Welfare Association",
            "lat": 22.627164,
            "lon": 88.37224,
            "address": "87B, Kasipur Rd , Cossipore Road, Bara Nagar, CIT, Satchasi Para, Kolkata, West Bengal 700035",
            "zone": "CCU-N",
            "id": "jEHEgca",
            "city": "Kolkata"
        },
        {
            "name": "Cossipore Shakti Sangha",
            "lat": 22.624208,
            "lon": 88.37249,
            "address": "8A Gopi Mondal Lane, Kolkata- 700002",
            "zone": "CCU-N",
            "id": "R7PrFrx",
            "city": "Kolkata"
        },
        {
            "name": "D. N. Ghosh Road Sarbojanin Durgotsav Commitee",
            "lat": 22.482359,
            "lon": 88.184095,
            "address": "24, D.N. Ghosh Rd, Maity Para, Samanta Para, Budge Budge, Kolkata, West Bengal 700137",
            "zone": "CCU-S",
            "id": "HfgZoEX",
            "city": "Kolkata"
        },
        {
            "name": "D. N. Mitra Square Sarbojanin",
            "lat": 22.535506,
            "lon": 88.34661,
            "address": "2/1C, Dr. Rajendra Road, Kolkata-700020",
            "zone": "CCU-S",
            "id": "genW8cM",
            "city": "Kolkata"
        },
        {
            "name": "DA Block",
            "lat": 22.5847695,
            "lon": 88.4019072,
            "address": "Bond Forever Jewelry Pvt. Ltd, DA 18, Salt Lake City, Bidhannagar - 700048, WB, India",
            "zone": "CCU-E",
            "id": "YGsHzAu",
            "city": "Kolkata"
        },
        {
            "name": "DB Block",
            "lat": 22.5862889,
            "lon": 88.4049385,
            "address": "Sector I, Bidhannagar - 700064, WB, India",
            "zone": "CCU-E",
            "id": "NqJ4Sk1",
            "city": "Kolkata"
        },
        {
            "name": "Dakshin Kolkata Sarbojanin Durgotsab",
            "lat": 22.524378,
            "lon": 88.33448,
            "address": "Alipore, Kolkata, West Bengal 700027",
            "zone": "CCU-S",
            "id": "2OCjJeg",
            "city": "Kolkata"
        },
        {
            "name": "Dakshin Kolkata Tarun Samity Durga Puja",
            "lat": 22.515614,
            "lon": 88.341925,
            "address": "23/7/3B, Tollygunge Road, Sahanagar, Kalighat, Kolkata, West Bengal",
            "zone": "CCU-S",
            "id": "S6eSSzz",
            "city": "Kolkata"
        },
        {
            "name": "Dakshin Pally Sarbojonin",
            "lat": 22.6978082,
            "lon": 88.3861413,
            "address": "Sodepur, Khardaha - 700110, WB, India",
            "zone": "CCU-N",
            "id": "TcwBoQF",
            "city": "Kolkata"
        },
        {
            "name": "Dakshin Panihati Sarbojonin",
            "lat": 22.6881151,
            "lon": 88.3774661,
            "address": "Sodepur, Kamarhati - 700114, WB, India",
            "zone": "CCU-N",
            "id": "MSn6jVr",
            "city": "Kolkata"
        },
        {
            "name": "Dakshin Phalguni Club",
            "lat": 22.470131,
            "lon": 88.379921,
            "address": "Kolkata - 700086, WB, India",
            "zone": "CCU-S",
            "id": "SHXn1jJ",
            "city": "Kolkata"
        },
        {
            "name": "Dakshineswar Adi Sarbojanin Durgotsab O Dolutsab Samity",
            "lat": 22.65922,
            "lon": 88.364435,
            "address": "2b, AC Sarkar Rd, Dakshineswar, Kolkata, West Bengal 700076",
            "zone": "CCU-N",
            "id": "8MEJWbg",
            "city": "Kolkata"
        },
        {
            "name": "Darjeepara Sammilani",
            "lat": 22.591429,
            "lon": 88.367177,
            "address": "Beadon Row, Hedua, Kolkata-700006",
            "zone": "CCU-N",
            "id": "Acg7lU1",
            "city": "Kolkata"
        },
        {
            "name": "Darjeepara Sarbojonin Durgotsab Samity",
            "lat": 22.592462,
            "lon": 88.367956,
            "address": "Darjipara, Kolkata, West Bengal 700006",
            "zone": "CCU-N",
            "id": "Fsm5nNS",
            "city": "Kolkata"
        },
        {
            "name": "Darpanarayan St. Sarbojanin Durga Puja",
            "lat": 22.587297,
            "lon": 88.35433,
            "address": "Darpanarayan Tagore St, Malapara, Jorabagan, Kolkata, West Bengal 700007",
            "zone": "CCU-N",
            "id": "5CYdkWh",
            "city": "Kolkata"
        },
        {
            "name": "Das Bari DurgaPuja",
            "lat": 22.7040215,
            "lon": 88.3723976,
            "address": "Sodepur, Khardaha - 700114, WB, India",
            "zone": "CCU-N",
            "id": "faMAXDw",
            "city": "Kolkata"
        },
        {
            "name": "Dashadrone Sarbojanin Durgotsav",
            "lat": 22.6313979,
            "lon": 88.4464932,
            "address": "Dashadrone Manicktala, Khelar Math, PO- Rajarhat, Kolkata- 700136, West Bengal",
            "zone": "CCU-E",
            "id": "4vHd3hO",
            "city": "Kolkata"
        },
        {
            "name": "Daw Bari Bandookwala",
            "lat": 22.586186,
            "lon": 88.359479,
            "address": "Sri Krishna Daw Ln, Machua Bazar North, Kolkata - 700007, WB, India",
            "zone": "CCU-N",
            "id": "27J7D5f",
            "city": "Kolkata"
        },
        {
            "name": "De Bari Durga Puja",
            "lat": 22.535065,
            "lon": 88.342072,
            "address": "26/E, Chandra Nath Chatterjee St, Bhowanipore, Kolkata, West Bengal 700025",
            "zone": "CCU-S",
            "id": "ZXPAVMU",
            "city": "Kolkata"
        },
        {
            "name": "Debloke Residents Welfare Association",
            "lat": 22.61885,
            "lon": 88.408942,
            "address": "1/99 Krishnakunj Apartment M M, MM Ghose Rd, Ward Number 22, Amarpalli, South Dum Dum, Kolkata- 700074",
            "zone": "CCU-N",
            "id": "PDyI1z5",
            "city": "Kolkata"
        },
        {
            "name": "Deodar Street Balak Sangha",
            "lat": 22.526427,
            "lon": 88.360239,
            "address": "15/8 Deodar Street Kolkata 700019",
            "zone": "CCU-S",
            "id": "6OlTcJZ",
            "city": "Kolkata"
        },
        {
            "name": "Deshapriya Park Durgotsab",
            "lat": 22.518439,
            "lon": 88.353527,
            "address": "Rash Behari Ave, Manoharpukur, Kalighat, Kolkata, West Bengal 700029",
            "zone": "CCU-S",
            "id": "biJy3MN",
            "city": "Kolkata"
        },
        {
            "name": "Deshbandhunagar Sarbojanin Durgotsab",
            "lat": 22.612775,
            "lon": 88.423516,
            "address": "AA-8/4 Deshbandhunagar, Baguiati, Kolkata-700059",
            "zone": "CCU-N",
            "id": "fh6uN77",
            "city": "Kolkata"
        },
        {
            "name": "Dhakuria Pragati Sangha Durga Puja",
            "lat": 22.508624,
            "lon": 88.371807,
            "address": "30C, Dhakuria, Tanu Pukur, Kolkata, West Bengal 700031",
            "zone": "CCU-S",
            "id": "lxwbtC6",
            "city": "Kolkata"
        },
        {
            "name": "Dhakuria Sarbojanin Durgotsab",
            "lat": 22.511363,
            "lon": 88.378555,
            "address": "5, Sarat Ghosh Garden Road, Dhakuria, Tanu Pukur, Kolkata, West Bengal",
            "zone": "CCU-S",
            "id": "dYV4mEJ",
            "city": "Kolkata"
        },
        {
            "name": "Dhalua Naboday Sangha",
            "lat": 22.472903,
            "lon": 88.407973,
            "address": "Dhalua (West), at Shiv Durga Mandir, Near Saha Panchil",
            "zone": "CCU-S",
            "id": "hsP90JV",
            "city": "Kolkata"
        },
        {
            "name": "Dharmatala Palli Bashi Brinda Club",
            "lat": 22.605473,
            "lon": 88.341941,
            "address": "Salkia, 10, Dharmatala Rd, Salkia, Howrah, West Bengal 711106",
            "zone": "HWH",
            "id": "HQVqDYl",
            "city": "Kolkata"
        },
        {
            "name": "Dhiren Charu Smriti Sangha",
            "lat": 22.561184,
            "lon": 88.405335,
            "address": "1a/2a Ramkrishna Naskar Lane,CIT More, Beleghata, Kolkata, West Bengal 700010",
            "zone": "CCU-E",
            "id": "3UNWKeh",
            "city": "Kolkata"
        },
        {
            "name": "Diamond City West Welfare Society",
            "lat": 22.484178,
            "lon": 88.301672,
            "address": "18, Ho Chi Minh Sarani, Bakultala, Behala, Kolkata, West Bengal 700061",
            "zone": "CCU-S",
            "id": "4uRA7ND",
            "city": "Kolkata"
        },
        {
            "name": "Diamond Park Sabojanin Durgotsav Committee",
            "lat": 22.45192,
            "lon": 88.304284,
            "address": "P-62, Diamond Park, Joka, Kolkata, West Bengal 700104",
            "zone": "CCU-S",
            "id": "8qJUprn",
            "city": "Kolkata"
        },
        {
            "name": "Dilip Smriti Sangha",
            "lat": 22.517796,
            "lon": 88.34494,
            "address": "Kalighat, Kolkata - 700026, WB, India",
            "zone": "CCU-S",
            "id": "U9Hqpd5",
            "city": "Kolkata"
        },
        {
            "name": "Dipabali Co-Operative Housing Puja Committee",
            "lat": 22.48686,
            "lon": 88.391007,
            "address": "1050/2, P G, Survey Park, Santoshpur, Kolkata, West Bengal 700075",
            "zone": "CCU-S",
            "id": "yJRaUvV",
            "city": "Kolkata"
        },
        {
            "name": "Dum Dum Mall Palli",
            "lat": 22.628401,
            "lon": 88.421617,
            "address": "Parul Nibas, 38/1, Mall Road, Nagerbazar, South Dumdum - 700080, WB, India",
            "zone": "CCU-N",
            "id": "x09PJzp",
            "city": "Kolkata"
        },
        {
            "name": "Dum Dum Mall Pally",
            "lat": 22.616679,
            "lon": 88.402984,
            "address": "866, Panchanantala, Bahiragath Colony, Jawpur, South Dum Dum, Kolkata, West Bengal 700074",
            "zone": "CCU-N",
            "id": "ji2MbIi",
            "city": "Kolkata"
        },
        {
            "name": "Dum Dum Park Bharat Chakra",
            "lat": 22.610102,
            "lon": 88.414169,
            "address": "Tank No. 2, Dum Dum Park, South Dum Dum, Kolkata- 700055",
            "zone": "CCU-N",
            "id": "xsXNbww",
            "city": "Kolkata"
        },
        {
            "name": "Dum Dum Park Bharat Chakra Sarbojanin Durgotsav",
            "lat": 22.610662,
            "lon": 88.41433,
            "address": "Tank No. 2, Dum Dum Park Road, South Dum Dum, Kolkata- 700055, West Bengal",
            "zone": "CCU-N",
            "id": "BvNdRoZ",
            "city": "Kolkata"
        },
        {
            "name": "Dum Dum Park Sarbojanin Durga Puja Committee",
            "lat": 22.609514,
            "lon": 88.4164,
            "address": "225/1, Dum Dum Park, South Dum Dum, Kolkata, West Bengal 700055",
            "zone": "CCU-N",
            "id": "AFigBUB",
            "city": "Kolkata"
        },
        {
            "name": "Dum Dum Park Tarun Sangha",
            "lat": 22.610095,
            "lon": 88.411637,
            "address": "Tank No 3, Dum Dum Park, South Dum Dum, Kolkata, West Bengal 700055",
            "zone": "CCU-N",
            "id": "wMbPQ3j",
            "city": "Kolkata"
        },
        {
            "name": "Dum Dum Park Tarun Sangha Sarbojanin Durgotsav",
            "lat": 22.610723,
            "lon": 88.413628,
            "address": "Tank No. 3, Dum Dum Park Road, South Dum Dum, Kolkata- 700055, West Bengal",
            "zone": "CCU-N",
            "id": "kZdpd7y",
            "city": "Kolkata"
        },
        {
            "name": "Dum Dum Park Yubak Brinda",
            "lat": 22.605386,
            "lon": 88.417875,
            "address": "A,, 413, Dum Dum Park, South Dum Dum, Kolkata, West Bengal 700055",
            "zone": "CCU-N",
            "id": "4wIAYI9",
            "city": "Kolkata"
        },
        {
            "name": "Dum Dum Tarun Dal",
            "lat": 22.611732,
            "lon": 88.418739,
            "address": "Bangur, South Dumdum - 700101, WB, India",
            "zone": "CCU-N",
            "id": "5v1DGIg",
            "city": "Kolkata"
        },
        {
            "name": "Dum Dum Tarun Dal Association",
            "lat": 22.610051,
            "lon": 88.419617,
            "address": "60, Shyam Nagar Road, Dum Dum Park, South Dum Dum, Kolkata, West Bengal 700055",
            "zone": "CCU-N",
            "id": "uHXMo3h",
            "city": "Kolkata"
        },
        {
            "name": "Dunduvi Club",
            "lat": 22.62697,
            "lon": 88.425336,
            "address": "NA/7, K.B.Sarani, Kamardanga, Kolkata, West Bengal 700080",
            "zone": "CCU-N",
            "id": "XDCaOog",
            "city": "Kolkata"
        },
        {
            "name": "Durbar Mahila Samanya Committee Durga Puja",
            "lat": 22.591756,
            "lon": 88.363819,
            "address": "12/5, Nilmoni Mitra Street, Kolkata, West Bengal 700006",
            "zone": "CCU-N",
            "id": "Pt6CGHh",
            "city": "Kolkata"
        },
        {
            "name": "Durga Charan Mitra Thakur Dalan",
            "lat": 22.592106,
            "lon": 88.365225,
            "address": "Beadan Row, Shobha Bazar East, Kolkata - 700003, WB, India",
            "zone": "CCU-N",
            "id": "vtPWQZz",
            "city": "Kolkata"
        },
        {
            "name": "Durga Puja of 4 Ghosh Lane",
            "lat": 22.585108,
            "lon": 88.370789,
            "address": "Sealdah North, Kolkata - 700006, WB, India",
            "zone": "CCU-C",
            "id": "s4ydDX0",
            "city": "Kolkata"
        },
        {
            "name": "Durgabari",
            "lat": 22.499889,
            "lon": 88.315765,
            "address": "Brahmo Samaj Road, Behala, Kolkata - 700034, WB, India",
            "zone": "CCU-S",
            "id": "PIr1UZP",
            "city": "Kolkata"
        },
        {
            "name": "Dutta Bari",
            "lat": 22.568145,
            "lon": 88.360783,
            "address": "Hidaram Banerjee Ln, Chandni Chowk East, Kolkata - 700013, WB, India",
            "zone": "CCU-N",
            "id": "a76WIix",
            "city": "Kolkata"
        },
        {
            "name": "Dutta Family Hatkhola - Madan Mohan Dutta",
            "lat": 22.593849,
            "lon": 88.354017,
            "address": "Madan Mohan Dutta Lane, Ward 20, Kolkata - 711107, WB, India",
            "zone": "CCU-N",
            "id": "8nAeV3I",
            "city": "Kolkata"
        },
        {
            "name": "EC Block Residents Association",
            "lat": 22.585853,
            "lon": 88.409114,
            "address": "North Corner of EC Park,, Sector 1, Kolkata, West Bengal",
            "zone": "CCU-E",
            "id": "lNo5Kai",
            "city": "Kolkata"
        },
        {
            "name": "EC Market",
            "lat": 22.5852613,
            "lon": 88.4092955,
            "address": "EC Market, Bidhannagar - 700097, WB, India",
            "zone": "CCU-E",
            "id": "cIe6EWO",
            "city": "Kolkata"
        },
        {
            "name": "EE Block",
            "lat": 22.5801459,
            "lon": 88.4240305,
            "address": "Sector V, Bidhannagar - 700091, WB, India",
            "zone": "CCU-E",
            "id": "ngk0OmO",
            "city": "Kolkata"
        },
        {
            "name": "Eden City Durga Puja",
            "lat": 22.493402,
            "lon": 88.210956,
            "address": "New Budge Budge Trunk Road, Parbangla, Sarengabad, Kolkata-700137",
            "zone": "CCU-S",
            "id": "eye5PBG",
            "city": "Kolkata"
        },
        {
            "name": "Eden Residency Puja Committee",
            "lat": 22.483302,
            "lon": 88.411073,
            "address": "2813, Nayabad Ave, Daspara, Rangapara, Nayabad, Kolkata, West Bengal 700094",
            "zone": "CCU-S",
            "id": "PFLKDcC",
            "city": "Kolkata"
        },